place_id,title,main_category,rating,reviews,link,website,phone,address,price_range,description,reviews_per_rating,latitude,longitude
AC001,4 Corner Khaoyai - Standard King Room,บ้าน,4.3,58,https://www.google.com/maps/place/4+Corner+Khaoyai+-+Standard+King+Room/data=!4m9!3m8!5m2!4m1!1i2!8m2!3d14.5532598!4d101.4320679!16s%2Fg%2F11tp2q92w8!17BQ0FF?authuser=0&hl=th&rclk=1,https://www.bluepillow.com/search?p_id=589de3927c00cb10c8d926fe&dest=bkng&cat=House&accomodationids=5b91e53c7c00cb35f8d1ce05,,,,บ้าน • นอนได้ 2 คน • 1 ห้องนอน • เตียง 1 หลัง,"{'1': None, '2': None, '3': None, '4': None, '5': None}",14.55325985,101.4320679
AC002,7 Up Resort Nakhon Nayok,รีสอร์ท,3.6,23,https://www.google.com/maps/place/7+Up+Resort+Nakhon+Nayok/data=!4m10!3m9!1s0x311dae14bf9a9003:0xb2e1c0cf4824bd07!5m2!4m1!1i2!8m2!3d14.184817!4d101.2339974!16s%2Fg%2F11cnbdy9wq!19sChIJA5CavxSuHTERB70kSM_A4bI?authuser=0&hl=th&rclk=1,https://www.expedia.co.th/Nakhon-Nayok-Hotels-7-Up-Resort.h20610573.Hotel-Information,091 004 3130,7 Up Resort Nakhon Nayok ตำบล วังกระโจม อำเภอเมืองนครนายก นครนายก 26130,,,"{'1': 3, '2': 1, '3': 7, '4': 4, '5': 8}",14.184817,101.2339974
AC003,After House Resort,โฮสเทล,4.8,12,https://www.google.com/maps/place/After+House+Resort/data=!4m10!3m9!1s0x311db32145aa096d:0x27bcfa26762b1d57!5m2!4m1!1i2!8m2!3d14.2800903!4d101.2748131!16s%2Fg%2F11n8t77y1w!19sChIJbQmqRSGzHTERVx0rdib6vCc?authuser=0&hl=th&rclk=1,,094 666 2916,After House Resort ทางหลวงแผ่นดินหมายเลข. 3049 ตำบล สาริกา อำเภอเมืองนครนายก นครนายก 26000,,,"{'1': 0, '2': 0, '3': 0, '4': 2, '5': 10}",14.2800903,101.2748131
AC004,At Rice Resort,รีสอร์ท,4.4,313,https://www.google.com/maps/place/At+Rice+Resort/data=!4m10!3m9!1s0x311db489509c5dd7:0xd2f6c2cac3afaa8f!5m2!4m1!1i2!8m2!3d14.3109941!4d101.30233!16s%2Fg%2F11g_rm6v77!19sChIJ112cUIm0HTERj6qvw8rC9tI?authuser=0&hl=th&rclk=1,https://www.atriceresort.com/,037 385 013,"At Rice Resort, 230/1 Moo 1 T, ตำบล สาริกา เมือง, นครนายก 26000",,,"{'1': 11, '2': 5, '3': 21, '4': 79, '5': 197}",14.3109941,101.30233
AC005,Baanbell Riverfront,โรงแรม,5,6,https://www.google.com/maps/place/Baanbell+Riverfront/data=!4m10!3m9!1s0x311db5c4b8302bd5:0x8d44ff5c574f41f9!5m2!4m1!1i2!8m2!3d14.2990712!4d101.3036264!16s%2Fg%2F11fstgr72c!19sChIJ1SswuMS1HTER-UFPV1z_RI0?authuser=0&hl=th&rclk=1,https://m.facebook.com/profile.php?id=100067074645105,095 557 6767,"Baanbell Riverfront Unnamed Road, ตำบล หินตั้ง อำเภอเมืองนครนายก นครนายก 26000",,,"{'1': 0, '2': 0, '3': 0, '4': 0, '5': 6}",14.2990712,101.3036264
AC006,Baanna Place,โรงแรม,4,120,https://www.google.com/maps/place/Baanna+Place/data=!4m10!3m9!1s0x311dbb804e5a7c0b:0x2ad6d154574950df!5m2!4m1!1i2!8m2!3d14.2614957!4d101.0740625!16s%2Fg%2F11f662_vn2!19sChIJC3xaToC7HTER31BJV1TR1io?authuser=0&hl=th&rclk=1,,093 635 9198,"178, Baanna Place, 9 อำเภอบ้านนา นครนายก 26110",,,"{'1': 7, '2': 5, '3': 20, '4': 42, '5': 46}",14.2614957,101.0740625
AC007,BaanSuanKhunYaiy Resort,รีสอร์ท,4.4,185,https://www.google.com/maps/place/BaanSuanKhunYaiy+Resort/data=!4m10!3m9!1s0x311db4665809418d:0x21c9cebe7d0c157c!5m2!4m1!1i2!8m2!3d14.31472!4d101.28954!16s%2Fg%2F11bt_jy465!19sChIJjUEJWGa0HTERfBUMfb7OySE?authuser=0&hl=th&rclk=1,http://www.baansuankhunyaiy.com/,098 347 6289,"BaanSuanKhunYaiy Resort, 616/1 หมู่ที่ 1, ซอยสาริกา-นางรอง 25, สาริกา, อำเภอเมืองนครนายก นครนายก 26000",,,"{'1': 4, '2': 5, '3': 18, '4': 52, '5': 106}",14.31472,101.28954
AC008,Castle House Resort (คาสเซิล เฮ้าส์ รีสอร์ท),ที่พัก,4.5,23,https://www.google.com/maps/place/Castle+House+Resort+%28%E0%B8%84%E0%B8%B2%E0%B8%AA%E0%B9%80%E0%B8%8B%E0%B8%B4%E0%B8%A5+%E0%B9%80%E0%B8%AE%E0%B9%89%E0%B8%B2%E0%B8%AA%E0%B9%8C+%E0%B8%A3%E0%B8%B5%E0%B8%AA%E0%B8%AD%E0%B8%A3%E0%B9%8C%E0%B8%97%29/data=!4m10!3m9!1s0x311db30fb39f9b7b:0x8bd39ca7ec830fe!5m2!4m1!1i2!8m2!3d14.2526437!4d101.258636!16s%2Fg%2F11k0mcb42r!19sChIJe5ufsw-zHTER_jDIfso5vQg?authuser=0&hl=th&rclk=1,,095 982 3991,7735+3F2 Castle House Resort (คาสเซิล เฮ้าส์ รีสอร์ท) ตำบล สาริกา อำเภอเมืองนครนายก นครนายก 26000,,,"{'1': 0, '2': 0, '3': 4, '4': 4, '5': 15}",14.2526437,101.258636
AC009,Chill Boxs Nakhonnayok,โรงแรม,,,https://www.google.com/maps/place/Chill+Boxs+Nakhonnayok/data=!4m10!3m9!1s0x311db1fabb683c2d:0x1f5548f6e8a8005f!5m2!4m1!1i2!8m2!3d14.2743741!4d101.1664904!16s%2Fg%2F11h32p12bc!19sChIJLTxou_qxHTERXwCo6PZIVR8?authuser=0&hl=th&rclk=1,,093 695 2555,75F8+PHX Chill Boxs Nakhonnayok Unnamed Road ตำบล พรหมณี อำเภอเมืองนครนายก นครนายก 26000,,,"{'1': None, '2': None, '3': None, '4': None, '5': None}",14.2743741,101.1664904
AC010,Cho Kaew Resort,รีสอร์ท,3.6,7,https://www.google.com/maps/place/Cho+Kaew+Resort/data=!4m10!3m9!1s0x311db189117171d9:0x9eafe1636193690!5m2!4m1!1i2!8m2!3d14.2361525!4d101.2486293!16s%2Fg%2F11f4wt1y5n!19sChIJ2XFxEYmxHTERkDYZNhb-6gk?authuser=0&hl=th&rclk=1,,085 920 6549,Cho Kaew Resort 85 Moo 9 Tumbol Sarika Amphor Mueng Ban Nong Bua Noi 26000,,,"{'1': 1, '2': 1, '3': 1, '4': 1, '5': 3}",14.2361525,101.2486293
AC011,E2S PLACE,โรงแรม,3.4,38,https://www.google.com/maps/place/E2S+PLACE/data=!4m10!3m9!1s0x311dbbea27342d67:0xef189f814fa53ec5!5m2!4m1!1i2!8m2!3d14.2391133!4d101.1544424!16s%2Fg%2F11glftyv81!19sChIJZy00J-q7HTERxT6lT4GfGO8?authuser=0&hl=th&rclk=1,https://e2s-place.business.site/,087 114 4557,"E2S PLACE, 181​, ตำบล พรหมณี อำเภอเมืองนครนายก นครนายก 26000",,,"{'1': 7, '2': 2, '3': 9, '4': 7, '5': 13}",14.2391133,101.1544424
AC012,E2S โฮม,รีสอร์ท,4.5,4,https://www.google.com/maps/place/E2S+%E0%B9%82%E0%B8%AE%E0%B8%A1/data=!4m10!3m9!1s0x311dbb81ca6d02e1:0x5b994122a4c2ad49!5m2!4m1!1i2!8m2!3d14.25787!4d101.158315!16s%2Fg%2F11h3mjmfw6!19sChIJ4QJtyoG7HTERSa3CpCJBmVs?authuser=0&hl=th&rclk=1,https://e2s-resort-hotel.business.site/,089 663 3555,E2S โฮม เลขที่ 99/9 หมู่ 14 ตำบล พรหมณี อำเภอเมืองนครนายก นครนายก 26000,,,"{'1': 0, '2': 0, '3': 0, '4': 2, '5': 2}",14.25787,101.158315
AC013,Eden house resort,โรงแรม,4.5,51,https://www.google.com/maps/place/Eden+house+resort/data=!4m10!3m9!1s0x311db13544af4e63:0x56f59725612b6b23!5m2!4m1!1i2!8m2!3d14.2266117!4d101.2515255!16s%2Fg%2F11lg2_l7z2!19sChIJY06vRDWxHTERI2srYSWX9VY?authuser=0&hl=th&rclk=1,https://paul-recommends.com/eden-house-resort-thailand,092 709 6960,"149, Eden house resort ตำบล สาริกา อำเภอเมืองนครนายก นครนายก 26000",,,"{'1': 0, '2': 2, '3': 3, '4': 15, '5': 31}",14.2266117,101.2515255
AC014,Field Town Apartment,โรงแรม,4.2,146,https://www.google.com/maps/place/Field+Town+Apartment/data=!4m10!3m9!1s0x311db02b3c9a3bd1:0xdeeb4df273f96c87!5m2!4m1!1i2!8m2!3d14.2113944!4d101.2061503!16s%2Fg%2F11f4wtklht!19sChIJ0TuaPCuwHTERh2z5c_JN694?authuser=0&hl=th&rclk=1,,099 895 4363,Field Town Apartment Soi6 137/5 Moo.7 Suwannasorn ตำบล บ้านใหญ่ Muang นครนายก 26000,,,"{'1': 3, '2': 2, '3': 22, '4': 48, '5': 71}",14.2113944,101.2061503
AC015,gebtawan resort,บังกะโล,1.5,10,https://www.google.com/maps/place/gebtawan+resort/data=!4m9!3m8!5m2!4m1!1i2!8m2!3d14.4037437!4d100.873085!16s%2Fg%2F11sk01q6wr!17BQ0FF?authuser=0&hl=th&rclk=1,https://www.agoda.com/gebtawan-resort/hotel/saraburi-th.html,,,,บังกะโล • นอนได้ 2 คน • 1 ห้องนอน • 1 ห้องน้ำ,"{'1': None, '2': None, '3': None, '4': None, '5': None}",14.40374374,100.873085
AC016,Grandma's house,โฮมสเตย์,4.7,25,https://www.google.com/maps/place/Grandma%27s+house/data=!4m10!3m9!1s0x311db116ea62d6b1:0x6bb2a274b68fddc8!5m2!4m1!1i2!8m2!3d14.2081677!4d101.2410341!16s%2Fg%2F11fcq_d9gp!19sChIJsdZi6haxHTERyN2PtnSisms?authuser=0&hl=th&rclk=1,https://www.facebook.com/grandma.house.th?mibextid=LQQJ4d,086 343 6442,Grandma's house 91/30 ซ.พิมพ์สิริ1 ท่าด่าน ตำบล ศรีนาวา อำเภอเมืองนครนายก นครนายก 26000,,,"{'1': 0, '2': 0, '3': 3, '4': 2, '5': 20}",14.2081677,101.2410341
AC017,Green house (กรีนเฮ้าท์) รีสอร์ท นครนายก,โรงแรม,5,4,https://www.google.com/maps/place/Green+house+%28%E0%B8%81%E0%B8%A3%E0%B8%B5%E0%B8%99%E0%B9%80%E0%B8%AE%E0%B9%89%E0%B8%B2%E0%B8%97%E0%B9%8C%29+%E0%B8%A3%E0%B8%B5%E0%B8%AA%E0%B8%AD%E0%B8%A3%E0%B9%8C%E0%B8%97+%E0%B8%99%E0%B8%84%E0%B8%A3%E0%B8%99%E0%B8%B2%E0%B8%A2%E0%B8%81/data=!4m10!3m9!1s0x311db1e3a8c94777:0x32937e1c53d2fc1a!5m2!4m1!1i2!8m2!3d14.2098452!4d101.2030882!16s%2Fg%2F11nmldmzkc!19sChIJd0fJqOOxHTERGvzSUxx-kzI?authuser=0&hl=th&rclk=1,https://www.facebook.com/greenhousenakhonnayok/,063 975 4956,6653+W6P Green house (กรีนเฮ้าท์) รีสอร์ท นครนายก ตำบล ท่าช้าง อำเภอเมืองนครนายก นครนายก 26000,,,"{'1': 0, '2': 0, '3': 0, '4': 0, '5': 4}",14.2098452,101.2030882
AC018,Greenhill nayok,รีสอร์ท,4,4,https://www.google.com/maps/place/Greenhill+nayok/data=!4m10!3m9!1s0x311db467414b2555:0xc675096361678a23!5m2!4m1!1i2!8m2!3d14.317042!4d101.290996!16s%2Fg%2F11dyxk47s8!19sChIJVSVLQWe0HTERI4pnYWMJdcY?authuser=0&hl=th&rclk=1,,081 988 9187,"878R+R99 Greenhill nayok, ตำบล สาริกา อำเภอเมืองนครนายก นครนายก 26000",,,"{'1': 0, '2': 0, '3': 1, '4': 2, '5': 1}",14.317042,101.290996
AC019,Happy Time Resort,โรงแรม,4.4,26,https://www.google.com/maps/place/Happy+Time+Resort/data=!4m10!3m9!1s0x311dbb9f4e086b49:0x99991c58012a51c4!5m2!4m1!1i2!8m2!3d14.2643985!4d101.0923538!16s%2Fg%2F11gcv58f1l!19sChIJSWsITp-7HTERxFEqAVgcmZk?authuser=0&hl=th&rclk=1,,089 965 5980,"737R+QW5 Happy Time Resort, อำเภอบ้านนา นครนายก 26110",,,"{'1': 0, '2': 2, '3': 2, '4': 6, '5': 16}",14.2643985,101.0923538
AC020,HiddenBOX,โรงแรม,4.2,67,https://www.google.com/maps/place/HiddenBOX/data=!4m10!3m9!1s0x311db09eb8f76b71:0x7e550a1e3b74174b!5m2!4m1!1i2!8m2!3d14.2741707!4d101.1664609!16s%2Fg%2F11gc9g7xsf!19sChIJcWv3uJ6wHTERSxd0Ox4KVX4?authuser=0&hl=th&rclk=1,https://m.facebook.com/HiddenBOXs/,089 414 1665,"HiddenBOX, 218/1, 218, ตำบล พรหมณี อำเภอเมืองนครนายก นครนายก 26000",,,"{'1': 1, '2': 3, '3': 11, '4': 20, '5': 32}",14.2741707,101.1664609
AC021,I Din Lake View Resort,รีสอร์ท,4.2,48,https://www.google.com/maps/place/I+Din+Lake+View+Resort/data=!4m10!3m9!1s0x311db3a3bd18d9dd:0x1f41e6cd811f7ba9!5m2!4m1!1i2!8m2!3d14.267991!4d101.2887802!16s%2Fg%2F11b7ftl578!19sChIJ3dkYvaOzHTERqXsfgc3mQR8?authuser=0&hl=th&rclk=1,http://www.idinlakeview.com/,081 864 6058,"I Din Lake View Resort, 68, ตำบล หินตั้ง อำเภอเมืองนครนายก นครนายก 26000",,,"{'1': 2, '2': 2, '3': 4, '4': 15, '5': 25}",14.267991,101.2887802
AC022,JJ RESORT@NAYOK,ที่พักขนาดเล็ก,3.9,78,https://www.google.com/maps/place/JJ+RESORT@NAYOK/data=!4m10!3m9!1s0x311db1871abe3147:0x889aa37d1723cdcf!5m2!4m1!1i2!8m2!3d14.2435469!4d101.2507629!16s%2Fg%2F11dyls0fmb!19sChIJRzG-GoexHTERz80jF32jmog?authuser=0&hl=th&rclk=1,http://www.facebook.com/jjresort.nayok,063 975 6185,JJ RESORT@NAYOK ถนน ทางหลวงแผ่นดินหมายเลข. 3049 ตำบล สาริกา อำเภอเมืองนครนายก นครนายก 26000,,,"{'1': 4, '2': 3, '3': 19, '4': 22, '5': 30}",14.2435469,101.2507629
AC023,Khwan Darunee,โรงแรม,4,1,https://www.google.com/maps/place/Khwan+Darunee/data=!4m10!3m9!1s0x311db4f41b37f78b:0x7c44c8297860a360!5m2!4m1!1i2!8m2!3d14.322912!4d101.30265!16s%2Fg%2F11fd49m1vv!19sChIJi_c3G_S0HTERYKNgeCnIRHw?authuser=0&hl=th&rclk=1,,099 345 6974,"Khwan Darunee, 318 Moo 9, Nakhon Nayok, 26000",,,"{'1': 0, '2': 0, '3': 0, '4': 1, '5': 0}",14.322912,101.30265
AC024,LA PLACE,รีสอร์ท,4.1,48,https://www.google.com/maps/place/LA+PLACE/data=!4m10!3m9!1s0x311dbb7494c46803:0x56e83e09dba8eb03!5m2!4m1!1i2!8m2!3d14.2553081!4d101.0922306!16s%2Fg%2F11fxx34bnf!19sChIJA2jElHS7HTERA-uo2wk-6FY?authuser=0&hl=th&rclk=1,,096 925 4063,734R+4VH LA PLACE อำเภอบ้านนา นครนายก 26110,,,"{'1': 1, '2': 2, '3': 9, '4': 15, '5': 21}",14.2553081,101.0922306
AC025,little for rest Nakhon Nayok,โฮมสเตย์,4.8,25,https://www.google.com/maps/place/little+for+rest+Nakhon+Nayok/data=!4m10!3m9!1s0x311db1b19ec768fd:0x3d7ae664a55e5604!5m2!4m1!1i2!8m2!3d14.2286283!4d101.2041716!16s%2Fg%2F11rst16317!19sChIJ_WjHnrGxHTERBFZepWTmej0?authuser=0&hl=th&rclk=1,,081 451 4458,"little for rest Nakhon Nayok, ตำบล พรหมณี อำเภอเมืองนครนายก นครนายก 26000",,,"{'1': 0, '2': 0, '3': 1, '4': 4, '5': 20}",14.2286283,101.2041716
AC026,M&M32 Happy home,รีสอร์ท,4.9,9,https://www.google.com/maps/place/M%26M32+Happy+home/data=!4m10!3m9!1s0x311db3dc087b761f:0xcc5266bb24f4fa1!5m2!4m1!1i2!8m2!3d14.2897734!4d101.2886846!16s%2Fg%2F11jzgbwb06!19sChIJH3Z7CNyzHTERoU9PsmsmxQw?authuser=0&hl=th&rclk=1,https://mm32-happyhome.business.site/?utm_source=gmb&utm_medium=referral,062 442 3232,"379, M&M32 Happy home, ตำบล สาริกา Muang, นครนายก 26000",,,"{'1': 0, '2': 0, '3': 0, '4': 1, '5': 8}",14.2897734,101.2886846
AC027,Mountain View Pool Villa,โรงแรม,4.5,24,https://www.google.com/maps/place/Mountain+View+Pool+Villa/data=!4m10!3m9!1s0x311dbbc3d9f6d307:0x4f8e75c70ef0a047!5m2!4m1!1i2!8m2!3d14.287565!4d101.0974043!16s%2Fg%2F11gbxcwv6f!19sChIJB9P22cO7HTERR6DwDsd1jk8?authuser=0&hl=th&rclk=1,https://www.facebook.com/MountainViewPoolVilla/,,"Mountain View Pool Villa Unnamed Road, 26110 ตำบล ศรีกะอาง อำเภอบ้านนา นครนายก",,,"{'1': 0, '2': 1, '3': 1, '4': 8, '5': 14}",14.287565,101.0974043
AC028,Nadol Resort,โรงแรม,2,5,https://www.google.com/maps/place/Nadol+Resort/data=!4m10!3m9!1s0x311dbc960e0c9fb3:0x213e50b97a51aacc!5m2!4m1!1i2!8m2!3d14.2386321!4d101.0548229!16s%2Fg%2F11f5ly5t48!19sChIJs58MDpa8HTERzKpRerlQPiE?authuser=0&hl=th&rclk=1,,037 382 760,"Nadol Resort, 71 Moo 13, T.Pakong A. Banna, Nakhon Nayok, 26110",,,"{'1': 3, '2': 1, '3': 0, '4': 0, '5': 1}",14.2386321,101.0548229
AC029,Nakhonyok Homestay (นครยก โฮมสเตย์),โรงแรม,4,65,https://www.google.com/maps/place/Nakhonyok+Homestay+%28%E0%B8%99%E0%B8%84%E0%B8%A3%E0%B8%A2%E0%B8%81+%E0%B9%82%E0%B8%AE%E0%B8%A1%E0%B8%AA%E0%B9%80%E0%B8%95%E0%B8%A2%E0%B9%8C%29/data=!4m10!3m9!1s0x311db20c9c3a0b9f:0x4e9b2d3878ac50a6!5m2!4m1!1i2!8m2!3d14.2106101!4d101.2729638!16s%2Fg%2F11dfgqw4gz!19sChIJnws6nAyyHTERplCseDgtm04?authuser=0&hl=th&rclk=1,,092 658 8282,Nakhonyok Homestay (นครยก โฮมสเตย์) 190 4 ตำบล ศรีนาวา อำเภอเมืองนครนายก นครนายก 26000,,,"{'1': 3, '2': 3, '3': 11, '4': 21, '5': 27}",14.2106101,101.2729638
AC030,Nava Resort ปากพลี นครนายก,โรงแรม,4,59,https://www.google.com/maps/place/Nava+Resort+%E0%B8%9B%E0%B8%B2%E0%B8%81%E0%B8%9E%E0%B8%A5%E0%B8%B5+%E0%B8%99%E0%B8%84%E0%B8%A3%E0%B8%99%E0%B8%B2%E0%B8%A2%E0%B8%81/data=!4m10!3m9!1s0x311dadd77218880f:0x919ffc5437d38ed0!5m2!4m1!1i2!8m2!3d14.169882!4d101.255836!16s%2Fg%2F11dzvhbsgy!19sChIJD4gYctetHTER0I7TN1T8n5E?authuser=0&hl=th&rclk=1,,,Nava Resort ปากพลี นครนายก 157 ถ. สุวรรณศร ตำบล เกาะหวาย อำเภอปากพลี นครนายก 26130,,,"{'1': 3, '2': 5, '3': 7, '4': 17, '5': 27}",14.169882,101.255836
AC031,Naya Pool Villa Nakhonnayok,โรงแรม,3.9,64,https://www.google.com/maps/place/Naya+Pool+Villa+Nakhonnayok/data=!4m10!3m9!1s0x311db16ded6f3e9f:0x34237d53f058a847!5m2!4m1!1i2!8m2!3d14.2566479!4d101.2475837!16s%2Fg%2F11gxybzsq3!19sChIJnz5v7W2xHTERR6hY8FN9IzQ?authuser=0&hl=th&rclk=1,,082 959 6220,764X+M24 Naya Pool Villa Nakhonnayok ตำบล สาริกา อำเภอเมืองนครนายก นครนายก 26000,,,"{'1': 5, '2': 4, '3': 11, '4': 17, '5': 27}",14.2566479,101.2475837
AC032,Nernbok Garden,โรงแรม,4.5,2,https://www.google.com/maps/place/Nernbok+Garden/data=!4m10!3m9!1s0x311db2b3a6925195:0x5291d86123a1a50f!5m2!4m1!1i2!8m2!3d14.2073643!4d101.3551481!16s%2Fg%2F11ggyytvp9!19sChIJlVGSprOyHTERD6WhI2HYkVI?authuser=0&hl=th&rclk=1,https://www.traveloka.com/th-th/hotel/thailand/nernbok-garden-1000000882794,092 279 3119,"Nernbok Garden, 122 Moo 1 Nahinlad Parkplee, นครนายก 26130",,,"{'1': 0, '2': 0, '3': 0, '4': 1, '5': 1}",14.2073643,101.3551481
AC033,Ninland Resort (นิลเเลนด์ รีสอร์ท),รีสอร์ท,4,12,https://www.google.com/maps/place/Ninland+Resort+%28%E0%B8%99%E0%B8%B4%E0%B8%A5%E0%B9%80%E0%B9%80%E0%B8%A5%E0%B8%99%E0%B8%94%E0%B9%8C+%E0%B8%A3%E0%B8%B5%E0%B8%AA%E0%B8%AD%E0%B8%A3%E0%B9%8C%E0%B8%97%29/data=!4m10!3m9!1s0x311db49a05918c3b:0x1270ec2aff3ca045!5m2!4m1!1i2!8m2!3d14.3050907!4d101.3137738!16s%2Fg%2F11ggxnx23r!19sChIJO4yRBZq0HTERRaA8_yrscBI?authuser=0&hl=th&rclk=1,https://ninland-resort.business.site/,098 859 5443,Ninland Resort (นิลเเลนด์ รีสอร์ท) หมู่ 2 66/1 หินตั้ง อำเภอเมืองนครนายก นครนายก 26000,,,"{'1': 1, '2': 1, '3': 0, '4': 5, '5': 5}",14.3050907,101.3137738
AC034,North Hotel,โรงแรม,3.3,103,https://www.google.com/maps/place/North+Hotel/data=!4m10!3m9!1s0x311dae285c810a65:0xa71c893a93213976!5m2!4m1!1i2!8m2!3d14.2158002!4d101.225675!16s%2Fg%2F11r90k39r!19sChIJZQqBXCiuHTERdjkhkzqJHKc?authuser=0&hl=th&rclk=1,,098 786 6635,North Hotel 145 ม .5 อ เมือง ตำบล บ้านใหญ่ อำเภอเมืองนครนายก,,,"{'1': 12, '2': 19, '3': 23, '4': 19, '5': 30}",14.2158002,101.225675
AC035,NT รีสอร์ท,โรงแรม,4,63,https://www.google.com/maps/place/NT+%E0%B8%A3%E0%B8%B5%E0%B8%AA%E0%B8%AD%E0%B8%A3%E0%B9%8C%E0%B8%97/data=!4m10!3m9!1s0x311daf12c8178575:0x331fdf39b3bdc20e!5m2!4m1!1i2!8m2!3d14.1496729!4d101.1853011!16s%2Fg%2F11cn96knrw!19sChIJdYUXyBKvHTERDsK9sznfHzM?authuser=0&hl=th&rclk=1,https://m.facebook.com/NTresort/,094 134 8688,45XP+Q62 NT รีสอร์ท ตำบล ดงละคร อำเภอเมืองนครนายก นครนายก 2,,,"{'1': 3, '2': 3, '3': 13, '4': 18, '5': 26}",14.1496729,101.1853011
AC036,onmyway resort,รีสอร์ท,4.8,31,https://www.google.com/maps/place/onmyway+resort/data=!4m10!3m9!1s0x311db54b9ba2fb99:0x781107611839ae57!5m2!4m1!1i2!8m2!3d14.3116406!4d101.3064958!16s%2Fg%2F11ll48qswq!19sChIJmfuim0u1HTERV645GGEHEXg?authuser=0&hl=th&rclk=1,https://on-my-way-resort.business.site/?utm_source=gmb&utm_medium=referral,086 655 5749,onmyway resort 725 ตำบล สาริกา เมือง นครนายก 26000,,,"{'1': 0, '2': 0, '3': 1, '4': 5, '5': 25}",14.3116406,101.3064958
AC037,OOST kampville,แคมป์ปิ้ง เคบิน,4.6,5,https://www.google.com/maps/place/OOST+kampville/data=!4m10!3m9!1s0x311dad9e9879532b:0xd7897c6c9fee7162!5m2!4m1!1i2!8m2!3d14.174185!4d101.307644!16s%2Fg%2F11mw7nmvgl!19sChIJK1N5mJ6tHTERYnHun2x8idc?authuser=0&hl=th&rclk=1,,,"58F5+M3C OOST kampville, ตำบล โคกกรวด อำเภอปากพลี นครนายก 26130",,,"{'1': 0, '2': 0, '3': 1, '4': 0, '5': 4}",14.174185,101.307644
AC038,Phanngam Resort,โรงแรม,3,1,https://www.google.com/maps/place/Phanngam+Resort/data=!4m10!3m9!1s0x311dad08e7b5a14b:0xe84c1a251ec31ddf!5m2!4m1!1i2!8m2!3d14.171054!4d101.30182!16s%2Fg%2F11f38qq3jx!19sChIJS6G15witHTER3x3DHiUaTOg?authuser=0&hl=th&rclk=1,,089 680 8833,"58C2+CPG Phanngam Resort, Koh Wai District, ตำบล เกาะหวาย Pak Phli, นครนายก 26130",,,"{'1': 0, '2': 0, '3': 1, '4': 0, '5': 0}",14.171054,101.30182
AC039,Phumontra Resort Nakhon Nayok,รีสอร์ท,4.4,505,https://www.google.com/maps/place/Phumontra+Resort+Nakhon+Nayok/data=!4m10!3m9!1s0x311db5bf34d8d149:0x4f6703993ddcdddb!5m2!4m1!1i2!8m2!3d14.2998279!4d101.3062103!16s%2Fg%2F11gjm9ngg_!19sChIJSdHYNL-1HTER293cPZkDZ08?authuser=0&hl=th&rclk=1,https://www.phumontraresort.com/,037 349 258,"Phumontra Resort Nakhon Nayok, 162, ตำบล หินตั้ง อำเภอเมืองนครนายก นครนายก 26000",,,"{'1': 20, '2': 16, '3': 29, '4': 121, '5': 319}",14.2998279,101.3062103
AC040,Pinkhut Homestay Nakhonnayok,โรงแรม,5,6,https://www.google.com/maps/place/Pinkhut+Homestay+Nakhonnayok/data=!4m10!3m9!1s0x311db34b97e404df:0x42b2da800d656a13!5m2!4m1!1i2!8m2!3d14.2790185!4d101.3126717!16s%2Fg%2F11kjz83fdr!19sChIJ3wTkl0uzHTERE2plDYDaskI?authuser=0&hl=th&rclk=1,https://www.instagram.com/pinkhut_nakhonnayok/,092 814 6269,"186, Pinkhut Homestay Nakhonnayok, ตำบล หินตั้ง อำเภอเมืองนครนายก นครนายก 26000",,,"{'1': 0, '2': 0, '3': 0, '4': 0, '5': 6}",14.2790185,101.3126717
AC041,pohop country resort,โรงแรม,3.4,7,https://www.google.com/maps/place/pohop+country+resort/data=!4m10!3m9!1s0x311db3f519c15c63:0x8c14ea33569df83c!5m2!4m1!1i2!8m2!3d14.2939022!4d101.2733879!16s%2Fg%2F11c1xh_w27!19sChIJY1zBGfWzHTERPPidVjPqFIw?authuser=0&hl=th&rclk=1,,081 551 1566,"77VF+H96 pohop country resort, ตำบล สาริกา อำเภอเมืองนครนายก นครนายก 26000",,,"{'1': 0, '2': 1, '3': 2, '4': 4, '5': 0}",14.2939022,101.2733879
AC042,Ravin Home Resort,รีสอร์ท,4.3,198,https://www.google.com/maps/place/Ravin+Home+Resort/data=!4m10!3m9!1s0x311c4d4912a34e2b:0x6b5e859936dab9b8!5m2!4m1!1i2!8m2!3d14.2196722!4d101.3468777!16s%2Fg%2F11cly718pk!19sChIJK06jEklNHDERuLnaNpmFXms?authuser=0&hl=th&rclk=1,http://www.ravinhome.com/,092 247 9393,"Ravin Home Resort 80 หมู่ ที่ 6 นา หิน ลาด, อำเภอปากพลี นครนายก 26130",,,"{'1': 4, '2': 4, '3': 23, '4': 55, '5': 112}",14.2196722,101.3468777
AC043,Royal Hills,สนามกอล์ฟ,4.3,2264,https://www.google.com/maps/place/Royal+Hills/data=!4m10!3m9!1s0x311db46aad3bf3bb:0x2ad0d079e74b6b67!5m2!4m1!1i2!8m2!3d14.318351!4d101.275118!16s%2Fg%2F1hm4dw5j0!19sChIJu_M7rWq0HTERZ2tL53nQ0Co?authuser=0&hl=th&rclk=1,http://www.royalhillsresort.com/,037 385 210,Royal Hills หมู่ที่ 2 100/3 ตำบล สาริกา อำเภอเมืองนครนายก นครนายก 26000,,รีสอร์ตหรูที่มีสนามกอล์ฟ 18 หลุม สปา สระว่ายน้ำ 3 สระ ร้านอาหาร 2 ร้าน และกิจกรรมมากมาย,"{'1': 52, '2': 35, '3': 247, '4': 773, '5': 1157}",14.318351,101.275118
AC044,Rungrak Resort | รังรัก รีสอร์ท,โมเต็ล,4.8,13,https://www.google.com/maps/place/Rungrak+Resort+%7C+%E0%B8%A3%E0%B8%B1%E0%B8%87%E0%B8%A3%E0%B8%B1%E0%B8%81+%E0%B8%A3%E0%B8%B5%E0%B8%AA%E0%B8%AD%E0%B8%A3%E0%B9%8C%E0%B8%97/data=!4m10!3m9!1s0x311db6d728b6affd:0x6299c3ba42513575!5m2!4m1!1i2!8m2!3d14.307963!4d101.2120732!16s%2Fg%2F11gghcqdnn!19sChIJ_a-2KNe2HTERdTVRQrrDmWI?authuser=0&hl=th&rclk=1,,085 420 2749,"Rungrak Resort | รังรัก รีสอร์ท, ตำบล เขาพระ อำเภอเมืองนครนายก นครนายก 26000",,,"{'1': 0, '2': 0, '3': 0, '4': 3, '5': 10}",14.307963,101.2120732
AC045,Sa Detong Valley,โรงแรม,4,9,https://www.google.com/maps/place/Sa+Detong+Valley/data=!4m10!3m9!1s0x311db8571c7f8461:0xc6d1e456285575fb!5m2!4m1!1i2!8m2!3d14.358407!4d101.120287!16s%2Fg%2F11dz1cvbmc!19sChIJYYR_HFe4HTER-3VVKFbk0cY?authuser=0&hl=th&rclk=1,http://bannaresort.com/,095 292 3249,Sa Detong Valley หมู่ 13 เลขที่ 3/2 ตำบล เขาเพิ่ม อำเภอบ้านนา นครนายก 26110,,,"{'1': 1, '2': 0, '3': 1, '4': 3, '5': 4}",14.358407,101.120287
AC046,Sonshine Resort ซันชายน์ รีสอร์ท,รีสอร์ท,4.1,33,https://www.google.com/maps/place/Sonshine+Resort+%E0%B8%8B%E0%B8%B1%E0%B8%99%E0%B8%8A%E0%B8%B2%E0%B8%A2%E0%B8%99%E0%B9%8C+%E0%B8%A3%E0%B8%B5%E0%B8%AA%E0%B8%AD%E0%B8%A3%E0%B9%8C%E0%B8%97/data=!4m10!3m9!1s0x311db3881a5d482f:0xe014604f31cec7ed!5m2!4m1!1i2!8m2!3d14.2948747!4d101.2854667!16s%2Fg%2F1ptwh83v9!19sChIJL0hdGoizHTER7cfOMU9gFOA?authuser=0&hl=th&rclk=1,http://www.sonshine-resort.com/,089 788 2413,Sonshine Resort ซันชายน์ รีสอร์ท ตำบล สาริกา อำเภอเมืองนครนายก นครนายก 26000,,,"{'1': 1, '2': 2, '3': 6, '4': 9, '5': 15}",14.2948747,101.2854667
AC047,Sophia Resort,โรงแรม,4,1,https://www.google.com/maps/place/Sophia+Resort/data=!4m10!3m9!1s0x311db032a823c109:0x6cbe95273d0db074!5m2!4m1!1i2!8m2!3d14.3066752!4d101.2935292!16s%2Fg%2F11fsf7qs55!19sChIJCcEjqDKwHTERdLANPSeVvmw?authuser=0&hl=th&rclk=1,,087 148 5959,Sophia Resort 92 หมู่ 2 ต.สาริกา อำเภอเมืองนครนายก นครนายก 26000,,,"{'1': 0, '2': 0, '3': 0, '4': 1, '5': 0}",14.3066752,101.2935292
AC048,SP3 Resort Hotel,โรงแรม,4.2,180,https://www.google.com/maps/place/SP3+Resort+Hotel/data=!4m10!3m9!1s0x311dbae6a3bc4555:0x360060a6e32c8cc4!5m2!4m1!1i2!8m2!3d14.2411201!4d101.1190408!16s%2Fg%2F11bx1z4j37!19sChIJVUW8o-a6HTERxIws46ZgADY?authuser=0&hl=th&rclk=1,,086 122 8071,SP3 Resort Hotel 125-126หมู่3 บ้านพร้าว อำเภอบ้านนา นครนายก 26110,,โรงแรมบรรยากาศผ่อนคลายมีสระว่ายน้ำกลางแจ้งและบริการอาหารเช้า ให้บริการห้องพักสบายๆ บางห้องมีระเบียง,"{'1': 9, '2': 1, '3': 25, '4': 61, '5': 84}",14.2411201,101.1190408
AC049,Summer resort,รีสอร์ท,5,3,https://www.google.com/maps/place/Summer+resort/data=!4m10!3m9!1s0x311db3cd6d08e925:0xe45af871a0e6de97!5m2!4m1!1i2!8m2!3d14.2558721!4d101.2535046!16s%2Fg%2F11v10083q8!19sChIJJekIbc2zHTERl97moHH4WuQ?authuser=0&hl=th&rclk=1,,086 399 0858,38 Summer resort 3 ตำบล สาริกา เมือง นครนายก 26000,,,"{'1': 0, '2': 0, '3': 0, '4': 0, '5': 3}",14.2558721,101.2535046
AC050,TakeAnap,โรงแรม,4.9,30,https://www.google.com/maps/place/TakeAnap/data=!4m10!3m9!1s0x311dba29aab56633:0x93838e6412bc0297!5m2!4m1!1i2!8m2!3d14.3005671!4d101.1216584!16s%2Fg%2F11d_29_y01!19sChIJM2a1qim6HTERlwK8EmSOg5M?authuser=0&hl=th&rclk=1,https://m.facebook.com/pages/category/Hotel---Lodging/%E0%B8%A3%E0%B8%B5%E0%B8%AA%E0%B8%AD%E0%B8%A3%E0%B9%8C%E0%B8%97-%E0%B9%80%E0%B8%97%E0%B8%84%E0%B8%AD%E0%B8%B0%E0%B9%81%E0%B8%99%E0%B9%87%E0%B8%9B-%E0%B8%99%E0%B8%84%E0%B8%A3%E0%B8%99%E0%B8%B2%E0%B8%A2%E0%B8%81-TAKE-A-NAP-Resort-Nakhon-Nayok-124259605148267/?locale2=th_TH,085 682 8548,"TakeAnap, Unnamed Rd ตำบล ศรีกะอาง อำเภอบ้านนา นครนายก 26110",,,"{'1': 0, '2': 0, '3': 1, '4': 2, '5': 27}",14.3005671,101.1216584
AC051,Tanthong resort,โรงแรม,5,1,https://www.google.com/maps/place/Tanthong+resort/data=!4m10!3m9!1s0x311db0990484fc77:0x582f8a89cf2aa94a!5m2!4m1!1i2!8m2!3d14.274872!4d101.169664!16s%2Fg%2F11fmljdsms!19sChIJd_yEBJmwHTERSqkqz4mKL1g?authuser=0&hl=th&rclk=1,,089 663 3555,"Tanthong resort 304/8, Moo.4, Tambon Tambon Phrommani, Amphoe Mueang Nakhon Nayok Nakhon Nayok Province 26001",,,"{'1': 0, '2': 0, '3': 0, '4': 0, '5': 1}",14.274872,101.169664
AC052,Tarmtawan garden home,ที่พัก,4.9,8,https://www.google.com/maps/place/Tarmtawan+garden+home/data=!4m10!3m9!1s0x311dadee46c0f4af:0xea1f8865c326a79b!5m2!4m1!1i2!8m2!3d14.2011973!4d101.2925522!16s%2Fg%2F11h7tzl5hm!19sChIJr_TARu6tHTERm6cmw2WIH-o?authuser=0&hl=th&rclk=1,https://tarmtawan-garden-home.business.site/?utm_source=gmb&utm_medium=referral,081 701 9272,Tarmtawan garden home 143 หมู่ 2 ตำบล หนองแสง อำเภอปากพลี นครนายก 26130,,,"{'1': 0, '2': 0, '3': 0, '4': 1, '5': 7}",14.2011973,101.2925522
AC053,"The Chamuang Forest Nakhon Nayok เดอะชะมวงฟอเรสต์ นครนายก,",โรงแรม,4.7,29,"https://www.google.com/maps/place/The+Chamuang+Forest+Nakhon+Nayok+%E0%B9%80%E0%B8%94%E0%B8%AD%E0%B8%B0%E0%B8%8A%E0%B8%B0%E0%B8%A1%E0%B8%A7%E0%B8%87%E0%B8%9F%E0%B8%AD%E0%B9%80%E0%B8%A3%E0%B8%AA%E0%B8%95%E0%B9%8C+%E0%B8%99%E0%B8%84%E0%B8%A3%E0%B8%99%E0%B8%B2%E0%B8%A2%E0%B8%81,/data=!4m10!3m9!1s0x311db51cc14f0313:0xe820cd4d95245c44!5m2!4m1!1i2!8m2!3d14.3123302!4d101.2874559!16s%2Fg%2F11rn7s4ykl!19sChIJEwNPwRy1HTERRFwklU3NIOg?authuser=0&hl=th&rclk=1",http://www.nayhua.com/,097 097 4426,"The Chamuang Forest Nakhon Nayok เดอะชะมวงฟอเรสต์ นครนายก,, Nangrong 25, 347, Soi, ตำบล สาริกา Amphoe. Muaeng, นครนายก 26000",,,"{'1': 1, '2': 0, '3': 1, '4': 4, '5': 23}",14.3123302,101.2874559
AC054,The Chill Resort at Nakornnayok,โรงแรม,3.9,304,https://www.google.com/maps/place/The+Chill+Resort+at+Nakornnayok/data=!4m10!3m9!1s0x311db4840f4a441f:0x1a5094fb28fa74a5!5m2!4m1!1i2!8m2!3d14.2986401!4d101.302742!16s%2Fg%2F11b8t72cwn!19sChIJH0RKD4S0HTERpXT6KPuUUBo?authuser=0&hl=th&rclk=1,http://www.chill-nakornnayok.com/,081 847 4501,"The Chill Resort at Nakornnayok, ตำบล หินตั้ง อำเภอเมืองนครนายก นครนายก 26000",,โรงแรมเรียบง่ายริมแม่น้ำมีบาร์ พื้นที่รับประทานอาหาร สระว่ายน้ำกลางแจ้ง และคาราโอเกะ,"{'1': 21, '2': 17, '3': 62, '4': 84, '5': 120}",14.2986401,101.302742
AC055,The Forest Home Resort.,รีสอร์ท,3.8,148,https://www.google.com/maps/place/The+Forest+Home+Resort./data=!4m10!3m9!1s0x311db3f335ccfe5b:0x6b1ff7c78094d895!5m2!4m1!1i2!8m2!3d14.3132837!4d101.2944263!16s%2Fg%2F1hc2n3twp!19sChIJW_7MNfOzHTERldiUgMf3H2s?authuser=0&hl=th&rclk=1,https://the-forest-home-resort.business.site/?utm_source=gmb&utm_medium=referral,037 385 086,The Forest Home Resort. สาริกา 414 1 ตำบล สาริกา เมือง นครนายก 26000,,,"{'1': 18, '2': 6, '3': 21, '4': 53, '5': 50}",14.3132837,101.2944263
AC056,The Midst@ Royal hills Nakornayok,โรงแรม,4.5,44,https://www.google.com/maps/place/The+Midst@+Royal+hills+Nakornayok/data=!4m10!3m9!1s0x311db21deb7cd28d:0xa2bc098b5fbe958c!5m2!4m1!1i2!8m2!3d14.3179247!4d101.2776597!16s%2Fg%2F11h_f5rq8v!19sChIJjdJ86x2yHTERjJW-X4sJvKI?authuser=0&hl=th&rclk=1,,064 535 3946,"The Midst@ Royal hills Nakornayok 40, 222, ตำบล สาริกา อำเภอเมืองนครนายก นครนายก 26000",,,"{'1': 0, '2': 1, '3': 3, '4': 13, '5': 27}",14.3179247,101.2776597
AC057,The Peem Hotel,ที่พักแรมในอาคาร,3.7,95,https://www.google.com/maps/place/The+Peem+Hotel/data=!4m10!3m9!1s0x311dbda523f2b87f:0xe3c8cd08e7dff834!5m2!4m1!1i2!8m2!3d14.2734422!4d101.0538447!16s%2Fg%2F11h5nm_r4r!19sChIJf7jyI6W9HTERNPjf5wjNyOM?authuser=0&hl=th&rclk=1,,095 554 4888,73F3+9GH The Peem Hotel ตำบล ป่าขะ อำเภอบ้านนา นครนายก 26110,,,"{'1': 9, '2': 7, '3': 20, '4': 22, '5': 37}",14.2734422,101.0538447
AC058,The Rabbit Home,รีสอร์ท,4.1,222,https://www.google.com/maps/place/The+Rabbit+Home/data=!4m10!3m9!1s0x311db462285b6d7b:0xf8187f525a3674fe!5m2!4m1!1i2!8m2!3d14.3123947!4d101.2954792!16s%2Fg%2F11f3j9d650!19sChIJe21bKGK0HTER_nQ2WlJ_GPg?authuser=0&hl=th&rclk=1,,037 349 689,876W+X62 The Rabbit Home ทางหลวงแผ่นดินหมายเลข. 3049 ตำบล สาริกา อำเภอเมืองนครนายก นครนายก 26000,,,"{'1': 17, '2': 4, '3': 31, '4': 55, '5': 115}",14.3123947,101.2954792
AC059,The Rock Resort บุ่งกระเบา,รีสอร์ท,3.7,66,https://www.google.com/maps/place/The+Rock+Resort+%E0%B8%9A%E0%B8%B8%E0%B9%88%E0%B8%87%E0%B8%81%E0%B8%A3%E0%B8%B0%E0%B9%80%E0%B8%9A%E0%B8%B2/data=!4m10!3m9!1s0x311db1e9bd07e3f9:0x430fa0f86bdacf4d!5m2!4m1!1i2!8m2!3d14.2221169!4d101.2314902!16s%2Fg%2F11c2dvpnfy!19sChIJ-eMHvemxHTERTc_aa_igD0M?authuser=0&hl=th&rclk=1,,037 312 156,The Rock Resort บุ่งกระเบา 92 5 ตำบล บ้านใหญ่ อำเภอเมืองนครนายก นครนายก 26000,,,"{'1': 5, '2': 6, '3': 18, '4': 14, '5': 23}",14.2221169,101.2314902
AC060,The Tree SriKaAng(เดอะ ทรีศรีกะอาง โฮมสเตย์),โฮมสเตย์,5,9,https://www.google.com/maps/place/The+Tree+SriKaAng%28%E0%B9%80%E0%B8%94%E0%B8%AD%E0%B8%B0+%E0%B8%97%E0%B8%A3%E0%B8%B5%E0%B8%A8%E0%B8%A3%E0%B8%B5%E0%B8%81%E0%B8%B0%E0%B8%AD%E0%B8%B2%E0%B8%87+%E0%B9%82%E0%B8%AE%E0%B8%A1%E0%B8%AA%E0%B9%80%E0%B8%95%E0%B8%A2%E0%B9%8C%29/data=!4m10!3m9!1s0x311db9328ff199eb:0xc8c0e10624020fe2!5m2!4m1!1i2!8m2!3d14.342545!4d101.1215707!16s%2Fg%2F11t2bygl93!19sChIJ65nxjzK5HTER4g8CJAbhwMg?authuser=0&hl=th&rclk=1,,086 378 1827,"9, The Tree SriKaAng(เดอะ ทรีศรีกะอาง โฮมสเตย์), SriKaAng, 1 ตำบล ศรีกะอาง Banna, นครนายก 26110",,,"{'1': 0, '2': 0, '3': 0, '4': 0, '5': 9}",14.342545,101.1215707
AC061,Tomangoh Resort,รีสอร์ท,4.3,26,https://www.google.com/maps/place/Tomangoh+Resort/data=!4m10!3m9!1s0x311db180a9805ef5:0x14012e77acf7a994!5m2!4m1!1i2!8m2!3d14.2456846!4d101.2523651!16s%2Fg%2F11g9jx28z3!19sChIJ9V6AqYCxHTERlKn3rHcuARQ?authuser=0&hl=th&rclk=1,http://www.tomangoh.com/,086 904 2500,"Tomangoh Resort 28 Moo10, Sarika-Nangrong Road, Tombon Sarika, Aumphur Muang Nakhon Nayok 26000",,,"{'1': 1, '2': 1, '3': 4, '4': 4, '5': 16}",14.2456846,101.2523651
AC062,Villa paramount,วิลล่า,4.5,21,https://www.google.com/maps/place/Villa+paramount/data=!4m10!3m9!1s0x311dbb58d1fd1d29:0xa7a1775a0075c08c!5m2!4m1!1i2!8m2!3d14.247095!4d101.1437446!16s%2Fg%2F11p567vlz2!19sChIJKR390Vi7HTERjMB1AFp3oac?authuser=0&hl=th&rclk=1,https://villa-paramount.business.site/?utm_source=gmb&utm_medium=referral,065 293 7426,Villa paramount ซอย โยธาธิการ ตำบล พรหมณี อำเภอเมืองนครนายก นครนายก 26000,,,"{'1': 1, '2': 0, '3': 1, '4': 4, '5': 15}",14.247095,101.1437446
AC063,Villa paramount 2,รีสอร์ท,4.4,18,https://www.google.com/maps/place/Villa+paramount+2/data=!4m10!3m9!1s0x311dbb0ad9e564fb:0x3cb2fc20599d58a5!5m2!4m1!1i2!8m2!3d14.2603264!4d101.1425009!16s%2Fg%2F11k3tlg3sb!19sChIJ-2Tl2Qq7HTERpVidWSD8sjw?authuser=0&hl=th&rclk=1,https://m.facebook.com/%E0%B8%9A%E0%B9%89%E0%B8%B2%E0%B8%99%E0%B8%9E%E0%B8%B1%E0%B8%81%E0%B8%9E%E0%B8%B9%E0%B8%A5%E0%B8%A7%E0%B8%B4%E0%B8%A5%E0%B8%A5%E0%B9%88%E0%B8%B2%E0%B8%99%E0%B8%84%E0%B8%A3%E0%B8%99%E0%B8%B2%E0%B8%A2%E0%B8%81-Villa-Paramount-112119321135548/?mibextid=LQQJ4d,062 179 7959,Villa paramount 2 ตำบล พรหมณี อำเภอเมืองนครนายก นครนายก 26000,,,"{'1': 1, '2': 0, '3': 1, '4': 5, '5': 11}",14.2603264,101.1425009
AC064,Viman View,รีสอร์ท,4.3,29,https://www.google.com/maps/place/Viman+View/data=!4m10!3m9!1s0x311db3a2d911e399:0xef9c46b3ebd515d8!5m2!4m1!1i2!8m2!3d14.2699239!4d101.2873233!16s%2Fg%2F11bxfzv00t!19sChIJmeMR2aKzHTER2BXV67NGnO8?authuser=0&hl=th&rclk=1,,093 885 9942,"Viman View, 204, Moo 6, Tambon Hintung, ซอย ศรีเมือง ตำบล นครนายก อำเภอเมืองนครนายก นครนายก 26000",,,"{'1': 1, '2': 1, '3': 4, '4': 6, '5': 17}",14.2699239,101.2873233
AC065,Wangree Kitchen (Wangree Resort),รีสอร์ท,4.1,510,https://www.google.com/maps/place/Wangree+Kitchen+%28Wangree+Resort%29/data=!4m10!3m9!1s0x311da793d724c391:0x6c2443eab66c5dea!5m2!4m1!1i2!8m2!3d14.3343413!4d101.1866533!16s%2Fg%2F11qzhkmw8v!19sChIJkcMk15OnHTER6l1stupDJGw?authuser=0&hl=th&rclk=1,http://www.wangreeresort.com/,081 720 9999,"85MP+9M2 Wangree Kitchen (Wangree Resort), ซอย โยธาธิการ ตำบล เขาพระ อำเภอเมืองนครนายก นครนายก 26000",,,"{'1': 19, '2': 24, '3': 83, '4': 158, '5': 226}",14.3343413,101.1866533
AC066,Wangyao Riverside Resort วังยาวริเวอร์ไซด์รีสอร์ท - ที่พักริมน้ำ นครนายก,รีสอร์ท,3.8,604,https://www.google.com/maps/place/Wangyao+Riverside+Resort+%E0%B8%A7%E0%B8%B1%E0%B8%87%E0%B8%A2%E0%B8%B2%E0%B8%A7%E0%B8%A3%E0%B8%B4%E0%B9%80%E0%B8%A7%E0%B8%AD%E0%B8%A3%E0%B9%8C%E0%B9%84%E0%B8%8B%E0%B8%94%E0%B9%8C%E0%B8%A3%E0%B8%B5%E0%B8%AA%E0%B8%AD%E0%B8%A3%E0%B9%8C%E0%B8%97+-+%E0%B8%97%E0%B8%B5%E0%B9%88%E0%B8%9E%E0%B8%B1%E0%B8%81%E0%B8%A3%E0%B8%B4%E0%B8%A1%E0%B8%99%E0%B9%89%E0%B8%B3+%E0%B8%99%E0%B8%84%E0%B8%A3%E0%B8%99%E0%B8%B2%E0%B8%A2%E0%B8%81/data=!4m10!3m9!1s0x311db3d82140f999:0x2b197fefca482561!5m2!4m1!1i2!8m2!3d14.275391!4d101.2813138!16s%2Fg%2F11bw3c_dt8!19sChIJmflAIdizHTERYSVIyu9_GSs?authuser=0&hl=th&rclk=1,https://www.wangyao-riversideresort.com/,087 030 8338,"Wangyao Riverside Resort วังยาวริเวอร์ไซด์รีสอร์ท - ที่พักริมน้ำ นครนายก, 314, ตำบล สาริกา นครนายก 26000",,,"{'1': 43, '2': 44, '3': 141, '4': 166, '5': 210}",14.275391,101.2813138
AC067,กรรณาวัฒน์ รีสอร์ท,โรงแรม,4.6,24,https://www.google.com/maps/place/%E0%B8%81%E0%B8%A3%E0%B8%A3%E0%B8%93%E0%B8%B2%E0%B8%A7%E0%B8%B1%E0%B8%92%E0%B8%99%E0%B9%8C+%E0%B8%A3%E0%B8%B5%E0%B8%AA%E0%B8%AD%E0%B8%A3%E0%B9%8C%E0%B8%97/data=!4m10!3m9!1s0x311dbc960e0c9fb3:0xd9bfdd37e7b69be8!5m2!4m1!1i2!8m2!3d14.2741482!4d101.0929387!16s%2Fg%2F11f5bj882z!19sChIJs58MDpa8HTER6Ju25zfdv9k?authuser=0&hl=th&rclk=1,https://www.expedia.co.th/Ban-Na-Hotels-Kannawat-Resort.h23486056.Hotel-Information,081 908 0962,"129, กรรณาวัฒน์ รีสอร์ท T. Paka A. Banna, ตำบล ป่าขะ อำเภอบ้านนา นครนายก 26110",,,"{'1': 0, '2': 0, '3': 2, '4': 5, '5': 17}",14.2741482,101.0929387
AC068,กรีนวิว รีสอร์ท Greenview Resort,ที่พัก,4.2,156,https://www.google.com/maps/place/%E0%B8%81%E0%B8%A3%E0%B8%B5%E0%B8%99%E0%B8%A7%E0%B8%B4%E0%B8%A7+%E0%B8%A3%E0%B8%B5%E0%B8%AA%E0%B8%AD%E0%B8%A3%E0%B9%8C%E0%B8%97+Greenview+Resort/data=!4m10!3m9!1s0x311db4895090a0ab:0xd3a84fdea7dc2eb5!5m2!4m1!1i2!8m2!3d14.3111069!4d101.3027797!16s%2Fg%2F11b6q46v26!19sChIJq6CQUIm0HTERtS7cp95PqNM?authuser=0&hl=th&rclk=1,,,8863+C4R กรีนวิว รีสอร์ท Greenview Resort ตำบล สาริกา อำเภอเมืองนครนายก นครนายก 26000,,,"{'1': 7, '2': 8, '3': 14, '4': 48, '5': 79}",14.3111069,101.3027797
AC069,กรีนฮิลล์ แอนด์ เฮาส์,โรงแรม,,,https://www.google.com/maps/place/%E0%B8%81%E0%B8%A3%E0%B8%B5%E0%B8%99%E0%B8%AE%E0%B8%B4%E0%B8%A5%E0%B8%A5%E0%B9%8C+%E0%B9%81%E0%B8%AD%E0%B8%99%E0%B8%94%E0%B9%8C+%E0%B9%80%E0%B8%AE%E0%B8%B2%E0%B8%AA%E0%B9%8C/data=!4m10!3m9!1s0x311db054ab5058a1:0xd2b41ae35271b1a4!5m2!4m1!1i2!8m2!3d14.2480471!4d101.20701!16s%2Fg%2F11b6d218mb!19sChIJoVhQq1SwHTERpLFxUuMatNI?authuser=0&hl=th&rclk=1,,083 112 0262,กรีนฮิลล์ แอนด์ เฮาส์ 45 ซอยบ้านหนองแวงบน หมู่ที่ 1 ตำบลเขาพระ ตำบล เขาพระ อำเภอเมืองนครนายก นครนายก 26000,,,"{'1': None, '2': None, '3': None, '4': None, '5': None}",14.2480471,101.20701
AC070,กังหันเงิน รีสอร์ท,รีสอร์ท,4.3,17,https://www.google.com/maps/place/%E0%B8%81%E0%B8%B1%E0%B8%87%E0%B8%AB%E0%B8%B1%E0%B8%99%E0%B9%80%E0%B8%87%E0%B8%B4%E0%B8%99+%E0%B8%A3%E0%B8%B5%E0%B8%AA%E0%B8%AD%E0%B8%A3%E0%B9%8C%E0%B8%97/data=!4m10!3m9!1s0x311daebd29d1c277:0x8e11746033170a28!5m2!4m1!1i2!8m2!3d14.1345804!4d101.2405348!16s%2Fg%2F11hb4vwj6h!19sChIJd8LRKb2uHTERKAoXM2B0EY4?authuser=0&hl=th&rclk=1,,062 895 9165,"46MR+R6M กังหันเงิน รีสอร์ท, ตำบล เกาะโพธิ์ อำเภอปากพลี นครนายก 26130",,,"{'1': 0, '2': 1, '3': 3, '4': 3, '5': 10}",14.1345804,101.2405348
AC071,กัปตัน รีสอร์ท,โมเต็ล,3.6,8,https://www.google.com/maps/place/%E0%B8%81%E0%B8%B1%E0%B8%9B%E0%B8%95%E0%B8%B1%E0%B8%99+%E0%B8%A3%E0%B8%B5%E0%B8%AA%E0%B8%AD%E0%B8%A3%E0%B9%8C%E0%B8%97/data=!4m10!3m9!1s0x311db114e4a66035:0x4b7aae1ef9dca4de!5m2!4m1!1i2!8m2!3d14.2253462!4d101.2343238!16s%2Fg%2F11ptjg679x!19sChIJNWCm5BSxHTER3qTc-R6ueks?authuser=0&hl=th&rclk=1,,064 871 2728,กัปตัน รีสอร์ท 124 ทางหลวงแผ่นดินหมายเลข. 3049 ตำบล บ้านใหญ่ อำเภอเมืองนครนายก นครนายก 26000,,,"{'1': 1, '2': 2, '3': 0, '4': 1, '5': 4}",14.2253462,101.2343238
AC072,กาญาตรีรีสอร์ท,รีสอร์ท,3.8,25,https://www.google.com/maps/place/%E0%B8%81%E0%B8%B2%E0%B8%8D%E0%B8%B2%E0%B8%95%E0%B8%A3%E0%B8%B5%E0%B8%A3%E0%B8%B5%E0%B8%AA%E0%B8%AD%E0%B8%A3%E0%B9%8C%E0%B8%97/data=!4m10!3m9!1s0x311db3f354785053:0x8d118a3bd71d3c8b!5m2!4m1!1i2!8m2!3d14.3096387!4d101.3055226!16s%2Fg%2F1hf6h3thk!19sChIJU1B4VPOzHTERizwd1zuKEY0?authuser=0&hl=th&rclk=1,https://www.facebook.com/GayatriResort/,095 483 4482,กาญาตรีรีสอร์ท 130/7 หมู่9 ตำบล สาริกา อำเภอเมืองนครนายก นครนายก 26000,,,"{'1': 4, '2': 0, '3': 3, '4': 8, '5': 10}",14.3096387,101.3055226
AC073,ขวัญดรุณีรีสอร์ท,รีสอร์ท,4.1,99,https://www.google.com/maps/place/%E0%B8%82%E0%B8%A7%E0%B8%B1%E0%B8%8D%E0%B8%94%E0%B8%A3%E0%B8%B8%E0%B8%93%E0%B8%B5%E0%B8%A3%E0%B8%B5%E0%B8%AA%E0%B8%AD%E0%B8%A3%E0%B9%8C%E0%B8%97/data=!4m10!3m9!1s0x311db4f42196c581:0x58a611bd99b46811!5m2!4m1!1i2!8m2!3d14.3230628!4d101.3017883!16s%2Fg%2F11f66tbnvk!19sChIJgcWWIfS0HTEREWi0mb0Rplg?authuser=0&hl=th&rclk=1,,080 623 4248,ขวัญดรุณีรีสอร์ท 318 หมู่9 ตำบล สาริกา อำเภอเมืองนครนายก นครนายก 26000,,,"{'1': 4, '2': 6, '3': 16, '4': 24, '5': 49}",14.3230628,101.3017883
AC074,ขวัญนคร เมาเทนวิว แอนด์ ลีลาวดี รีสอร์ท,โรงแรม,4,26,https://www.google.com/maps/place/%E0%B8%82%E0%B8%A7%E0%B8%B1%E0%B8%8D%E0%B8%99%E0%B8%84%E0%B8%A3+%E0%B9%80%E0%B8%A1%E0%B8%B2%E0%B9%80%E0%B8%97%E0%B8%99%E0%B8%A7%E0%B8%B4%E0%B8%A7+%E0%B9%81%E0%B8%AD%E0%B8%99%E0%B8%94%E0%B9%8C+%E0%B8%A5%E0%B8%B5%E0%B8%A5%E0%B8%B2%E0%B8%A7%E0%B8%94%E0%B8%B5+%E0%B8%A3%E0%B8%B5%E0%B8%AA%E0%B8%AD%E0%B8%A3%E0%B9%8C%E0%B8%97/data=!4m10!3m9!1s0x311db38cb7dac2e7:0x2558b10defcd7aa4!5m2!4m1!1i2!8m2!3d14.3132828!4d101.3053246!16s%2Fg%2F1hdzczzmr!19sChIJ58Lat4yzHTERpHrN7w2xWCU?authuser=0&hl=th&rclk=1,,083 905 5677,"ขวัญนคร เมาเทนวิว แอนด์ ลีลาวดี รีสอร์ท 251/14, ถ.นครนายก-นางรอง กม. 16, ตำบลสาริกา อำเภอเมืองนครนายก จังหวัดนครนายก, 26000 26000",,,"{'1': 0, '2': 3, '3': 5, '4': 7, '5': 11}",14.3132828,101.3053246
AC075,ขวัญนคร รีสอร์ท,รีสอร์ท,4.2,29,https://www.google.com/maps/place/%E0%B8%82%E0%B8%A7%E0%B8%B1%E0%B8%8D%E0%B8%99%E0%B8%84%E0%B8%A3+%E0%B8%A3%E0%B8%B5%E0%B8%AA%E0%B8%AD%E0%B8%A3%E0%B9%8C%E0%B8%97/data=!4m10!3m9!1s0x311db48c69c915c5:0x7cee93e49287c01f!5m2!4m1!1i2!8m2!3d14.3124542!4d101.305488!16s%2Fg%2F1hd_cpzz0!19sChIJxRXJaYy0HTERH8CHkuST7nw?authuser=0&hl=th&rclk=1,http://www.kwannakorn.com/,,ขวัญนคร รีสอร์ท 5 ซอย 44 ตำบล สาริกา อำเภอเมืองนครนายก นครนายก 26000,,,"{'1': 0, '2': 0, '3': 7, '4': 9, '5': 13}",14.3124542,101.305488
AC076,ข้าวหอมรีสอร์ท,โรงแรม,4.5,180,https://www.google.com/maps/place/%E0%B8%82%E0%B9%89%E0%B8%B2%E0%B8%A7%E0%B8%AB%E0%B8%AD%E0%B8%A1%E0%B8%A3%E0%B8%B5%E0%B8%AA%E0%B8%AD%E0%B8%A3%E0%B9%8C%E0%B8%97/data=!4m10!3m9!1s0x311dadd76d330fab:0xec7cdf5c1dd01830!5m2!4m1!1i2!8m2!3d14.1695095!4d101.2560434!16s%2Fg%2F11ddwyz_yx!19sChIJqw8zbdetHTERMBjQHVzffOw?authuser=0&hl=th&rclk=1,,098 636 6628,"ข้าวหอมรีสอร์ท 15 Moo1 Tambon Ko wai, Amphoe Pakplee Nakhon Nayok 26130",,,"{'1': 2, '2': 1, '3': 11, '4': 53, '5': 113}",14.1695095,101.2560434
AC077,ไขแสง รีสอร์ท,รีสอร์ท,3.8,38,https://www.google.com/maps/place/%E0%B9%84%E0%B8%82%E0%B9%81%E0%B8%AA%E0%B8%87+%E0%B8%A3%E0%B8%B5%E0%B8%AA%E0%B8%AD%E0%B8%A3%E0%B9%8C%E0%B8%97/data=!4m10!3m9!1s0x311db3a49bfb9689:0x5e4d6aa72e7d8e57!5m2!4m1!1i2!8m2!3d14.3113628!4d101.308679!16s%2Fg%2F1v5k0gv8!19sChIJiZb7m6SzHTERV459LqdqTV4?authuser=0&hl=th&rclk=1,,081 503 0387,"ไขแสง รีสอร์ท เขื่อนท่าด่าน, ตำบลหินตั้ง อำเภอเมืองนครนายก จังหวัดนครนายก, 26100",,,"{'1': 5, '2': 0, '3': 7, '4': 11, '5': 15}",14.3113628,101.308679
AC078,เคพี โฮมสเตย์ นครนายก,ที่พักขนาดเล็ก,5,5,https://www.google.com/maps/place/%E0%B9%80%E0%B8%84%E0%B8%9E%E0%B8%B5+%E0%B9%82%E0%B8%AE%E0%B8%A1%E0%B8%AA%E0%B9%80%E0%B8%95%E0%B8%A2%E0%B9%8C+%E0%B8%99%E0%B8%84%E0%B8%A3%E0%B8%99%E0%B8%B2%E0%B8%A2%E0%B8%81/data=!4m10!3m9!1s0x311db3e8da043c0b:0x281c9088be679d37!5m2!4m1!1i2!8m2!3d14.2744854!4d101.3123661!16s%2Fg%2F11qpng2cwx!19sChIJCzwE2uizHTERN51nvoiQHCg?authuser=0&hl=th&rclk=1,https://inn-3083.business.site/?utm_source=gmb&utm_medium=referral,081 480 1237,เคพี โฮมสเตย์ นครนายก 151 ตำบล หินตั้ง เมือง นครนายก 26000,,,"{'1': 0, '2': 0, '3': 0, '4': 0, '5': 5}",14.2744854,101.3123661
AC079,เคียงฟ้ารีสอร์ท,รีสอร์ท,4.2,54,https://www.google.com/maps/place/%E0%B9%80%E0%B8%84%E0%B8%B5%E0%B8%A2%E0%B8%87%E0%B8%9F%E0%B9%89%E0%B8%B2%E0%B8%A3%E0%B8%B5%E0%B8%AA%E0%B8%AD%E0%B8%A3%E0%B9%8C%E0%B8%97/data=!4m10!3m9!1s0x311db95f64076abf:0xc4a74303fad05d12!5m2!4m1!1i2!8m2!3d14.3055452!4d101.0896646!16s%2Fg%2F11c0rvn7kp!19sChIJv2oHZF-5HTEREl3Q-gNDp8Q?authuser=0&hl=th&rclk=1,,089 829 2299,834Q+6V7 เคียงฟ้ารีสอร์ท ตำบล ศรีกะอาง อำเภอบ้านนา นครนายก 26110,,,"{'1': 1, '2': 1, '3': 11, '4': 15, '5': 26}",14.3055452,101.0896646
AC080,จักรดาว เมาท์เท่น วิว (Mountain View),โรงแรม,4,4,https://www.google.com/maps/place/%E0%B8%88%E0%B8%B1%E0%B8%81%E0%B8%A3%E0%B8%94%E0%B8%B2%E0%B8%A7+%E0%B9%80%E0%B8%A1%E0%B8%B2%E0%B8%97%E0%B9%8C%E0%B9%80%E0%B8%97%E0%B9%88%E0%B8%99+%E0%B8%A7%E0%B8%B4%E0%B8%A7+%28Mountain+View%29/data=!4m10!3m9!1s0x311db032a823c109:0x61dda1f7571a7958!5m2!4m1!1i2!8m2!3d14.2764565!4d101.1857408!16s%2Fg%2F11j0cljqs5!19sChIJCcEjqDKwHTERWHkaV_eh3WE?authuser=0&hl=th&rclk=1,,098 448 8383,75GP+H7Q จักรดาว เมาท์เท่น วิว (Mountain View) ตำบล พรหมณี อำเภอเมืองนครนายก นครนายก 26000,,,"{'1': 0, '2': 0, '3': 1, '4': 2, '5': 1}",14.2764565,101.1857408
AC081,ฉวีแกลมปิ้งแอนด์​รีสอร์ท​ Chawee​ Glamping​ &​ Resort​,ที่พัก,4.2,42,https://www.google.com/maps/place/%E0%B8%89%E0%B8%A7%E0%B8%B5%E0%B9%81%E0%B8%81%E0%B8%A5%E0%B8%A1%E0%B8%9B%E0%B8%B4%E0%B9%89%E0%B8%87%E0%B9%81%E0%B8%AD%E0%B8%99%E0%B8%94%E0%B9%8C%E2%80%8B%E0%B8%A3%E0%B8%B5%E0%B8%AA%E0%B8%AD%E0%B8%A3%E0%B9%8C%E0%B8%97%E2%80%8B+Chawee%E2%80%8B+Glamping%E2%80%8B+%26%E2%80%8B+Resort%E2%80%8B/data=!4m10!3m9!1s0x311db1098691fbdd:0xf5383e190f0336ed!5m2!4m1!1i2!8m2!3d14.2804634!4d101.2165899!16s%2Fg%2F11m_sbwg6k!19sChIJ3fuRhgmxHTER7TYDDxk-OPU?authuser=0&hl=th&rclk=1,https://www.facebook.com/chaweeglamping/,098 831 7517,204 ฉวีแกลมปิ้งแอนด์​รีสอร์ท​ Chawee​ Glamping​ &​ Resort​ ตำบล เขาพระ อำเภอเมืองนครนายก นครนายก 26000,,,"{'1': 5, '2': 1, '3': 2, '4': 5, '5': 29}",14.2804634,101.2165899
AC082,ชนาภัทร การ์เด้นโฮม,ที่พักที่มีบริการต่าง ๆ,4.9,10,https://www.google.com/maps/place/%E0%B8%8A%E0%B8%99%E0%B8%B2%E0%B8%A0%E0%B8%B1%E0%B8%97%E0%B8%A3+%E0%B8%81%E0%B8%B2%E0%B8%A3%E0%B9%8C%E0%B9%80%E0%B8%94%E0%B9%89%E0%B8%99%E0%B9%82%E0%B8%AE%E0%B8%A1/data=!4m10!3m9!1s0x311dbb75d5e8577b:0xb388ede2d0741208!5m2!4m1!1i2!8m2!3d14.2730662!4d101.0933302!16s%2Fg%2F11s7v4l665!19sChIJe1fo1XW7HTERCBJ00OLtiLM?authuser=0&hl=th&rclk=1,https://www.facebook.com/%E0%B8%8A%E0%B8%99%E0%B8%B2%E0%B8%A0%E0%B8%B1%E0%B8%97%E0%B8%A3-%E0%B8%81%E0%B8%B2%E0%B8%A3%E0%B9%8C%E0%B9%80%E0%B8%94%E0%B9%89%E0%B8%99%E0%B9%82%E0%B8%AE%E0%B8%A1-104564309064902/,084 877 0379,99 ชนาภัทร การ์เด้นโฮม 2 ตำบล ป่าขะ อำเภอบ้านนา นครนายก 26110,,,"{'1': 0, '2': 0, '3': 0, '4': 1, '5': 9}",14.2730662,101.0933302
AC083,ชมนาแลดาวรีสอร์ท,โรงแรม,4.9,12,https://www.google.com/maps/place/%E0%B8%8A%E0%B8%A1%E0%B8%99%E0%B8%B2%E0%B9%81%E0%B8%A5%E0%B8%94%E0%B8%B2%E0%B8%A7%E0%B8%A3%E0%B8%B5%E0%B8%AA%E0%B8%AD%E0%B8%A3%E0%B9%8C%E0%B8%97/data=!4m10!3m9!1s0x311db143b52f07e7:0xa64bb3eb360142ad!5m2!4m1!1i2!8m2!3d14.2972793!4d101.21875!16s%2Fg%2F11t8kxgf34!19sChIJ5wcvtUOxHTERrUIBNuuzS6Y?authuser=0&hl=th&rclk=1,,,76W9+2V ชมนาแลดาวรีสอร์ท ตำบล เขาพระ อำเภอเมืองนครนายก นครนายก 26000,,,"{'1': 0, '2': 0, '3': 0, '4': 1, '5': 11}",14.2972793,101.21875
AC084,ชลพฤกษ์ รีสอร์ท โซน C [C1-42],ที่พักขนาดเล็ก,4.3,13,https://www.google.com/maps/place/%E0%B8%8A%E0%B8%A5%E0%B8%9E%E0%B8%A4%E0%B8%81%E0%B8%A9%E0%B9%8C+%E0%B8%A3%E0%B8%B5%E0%B8%AA%E0%B8%AD%E0%B8%A3%E0%B9%8C%E0%B8%97+%E0%B9%82%E0%B8%8B%E0%B8%99+C+%5BC1-42%5D/data=!4m10!3m9!1s0x311dbb83ce20aaab:0x5d10b978ec16d03a!5m2!4m1!1i2!8m2!3d14.2265723!4d101.1096227!16s%2Fg%2F11j6fqggsj!19sChIJq6ogzoO7HTEROtAW7Hi5EF0?authuser=0&hl=th&rclk=1,http://www.clpresort.com/,037 307 567,ชลพฤกษ์ รีสอร์ท โซน C [C1-42] 64 ม.10 ตำบล บ้านพร้าว อำเภอบ้านนา นครนายก 26110,,,"{'1': 0, '2': 0, '3': 3, '4': 3, '5': 7}",14.2265723,101.1096227
AC085,ชลพฤกษ์ รีสอร์ท โซน W [W101-702],ที่พักขนาดเล็ก,4.4,22,https://www.google.com/maps/place/%E0%B8%8A%E0%B8%A5%E0%B8%9E%E0%B8%A4%E0%B8%81%E0%B8%A9%E0%B9%8C+%E0%B8%A3%E0%B8%B5%E0%B8%AA%E0%B8%AD%E0%B8%A3%E0%B9%8C%E0%B8%97+%E0%B9%82%E0%B8%8B%E0%B8%99+W+%5BW101-702%5D/data=!4m10!3m9!1s0x311dbbd15d9840eb:0xb462370720dd06a5!5m2!4m1!1i2!8m2!3d14.2285524!4d101.1079477!16s%2Fg%2F11jgwcg2ff!19sChIJ60CYXdG7HTERpQbdIAc3YrQ?authuser=0&hl=th&rclk=1,http://www.clpresort.com/,037 307 567,ชลพฤกษ์ รีสอร์ท โซน W [W101-702] 64 ม.10 ตำบล บ้านพร้าว อำเภอบ้านนา นครนายก 26110,,,"{'1': 0, '2': 0, '3': 4, '4': 6, '5': 12}",14.2285524,101.1079477
AC086,ชลพฤกษ์ รีสอร์ท โซน ลอด์จ [L1-L7],ที่พักขนาดเล็ก,3.8,4,https://www.google.com/maps/place/%E0%B8%8A%E0%B8%A5%E0%B8%9E%E0%B8%A4%E0%B8%81%E0%B8%A9%E0%B9%8C+%E0%B8%A3%E0%B8%B5%E0%B8%AA%E0%B8%AD%E0%B8%A3%E0%B9%8C%E0%B8%97+%E0%B9%82%E0%B8%8B%E0%B8%99+%E0%B8%A5%E0%B8%AD%E0%B8%94%E0%B9%8C%E0%B8%88+%5BL1-L7%5D/data=!4m10!3m9!1s0x311dbb142fdee687:0x4ec40398dcd3d2a!5m2!4m1!1i2!8m2!3d14.2245262!4d101.1068954!16s%2Fg%2F11jn0y5f7b!19sChIJh-beLxS7HTERKj3NjTlA7AQ?authuser=0&hl=th&rclk=1,,037 307 567,ชลพฤกษ์ รีสอร์ท โซน ลอด์จ [L1-L7] 64 ม.10 ตำบล บ้านพร้าว อำเภอบ้านนา นครนายก 26110,,,"{'1': 0, '2': 0, '3': 2, '4': 1, '5': 1}",14.2245262,101.1068954
AC087,ช่อแก้วรีสอร์ท,โรงแรม,3.4,18,https://www.google.com/maps/place/%E0%B8%8A%E0%B9%88%E0%B8%AD%E0%B9%81%E0%B8%81%E0%B9%89%E0%B8%A7%E0%B8%A3%E0%B8%B5%E0%B8%AA%E0%B8%AD%E0%B8%A3%E0%B9%8C%E0%B8%97/data=!4m10!3m9!1s0x311db189117202bf:0xbad2befb1da5d446!5m2!4m1!1i2!8m2!3d14.236157!4d101.248618!16s%2Fg%2F11bwylmx6f!19sChIJvwJyEYmxHTERRtSlHfu-0ro?authuser=0&hl=th&rclk=1,,085 920 6549,"66PX+FC9 ช่อแก้วรีสอร์ท Unnamed Rd,, ตำบล สาริกา อำเภอเมืองนครนายก นครนายก 26000",,,"{'1': 2, '2': 1, '3': 7, '4': 4, '5': 4}",14.236157,101.248618
AC088,ช่อทิพย์รีสอร์ท นครนายก,โรงแรม,3.4,53,https://www.google.com/maps/place/%E0%B8%8A%E0%B9%88%E0%B8%AD%E0%B8%97%E0%B8%B4%E0%B8%9E%E0%B8%A2%E0%B9%8C%E0%B8%A3%E0%B8%B5%E0%B8%AA%E0%B8%AD%E0%B8%A3%E0%B9%8C%E0%B8%97+%E0%B8%99%E0%B8%84%E0%B8%A3%E0%B8%99%E0%B8%B2%E0%B8%A2%E0%B8%81/data=!4m10!3m9!1s0x311dad08e14119bb:0xbdb3d30ddfbfa7f9!5m2!4m1!1i2!8m2!3d14.1706509!4d101.301482!16s%2Fg%2F11c555kjw4!19sChIJuxlB4QitHTER-ae_3w3Ts70?authuser=0&hl=th&rclk=1,,082 599 9288,ช่อทิพย์รีสอร์ท นครนายก 55 หมู่ 4 ตำบล เกาะหวาย อำเภอปากพลี นครนายก 26130,,,"{'1': 8, '2': 4, '3': 15, '4': 12, '5': 14}",14.1706509,101.301482
AC089,ช้อนทอง รีสอร์ท,รีสอร์ท,3.6,33,https://www.google.com/maps/place/%E0%B8%8A%E0%B9%89%E0%B8%AD%E0%B8%99%E0%B8%97%E0%B8%AD%E0%B8%87+%E0%B8%A3%E0%B8%B5%E0%B8%AA%E0%B8%AD%E0%B8%A3%E0%B9%8C%E0%B8%97/data=!4m10!3m9!1s0x311dba76017f88ed:0x50a8f7d44d0b3a9d!5m2!4m1!1i2!8m2!3d14.2506387!4d101.1573634!16s%2Fg%2F1hm30g8nf!19sChIJ7Yh_AXa6HTERnToLTdT3qFA?authuser=0&hl=th&rclk=1,,,7524+7W5 ช้อนทอง รีสอร์ท ตำบล พรหมณี อำเภอเมืองนครนายก นครนายก 26000,,,"{'1': 5, '2': 4, '3': 5, '4': 5, '5': 14}",14.2506387,101.1573634
AC090,ช่อมาลี รีสอร์ท,ที่พัก,4.2,47,https://www.google.com/maps/place/%E0%B8%8A%E0%B9%88%E0%B8%AD%E0%B8%A1%E0%B8%B2%E0%B8%A5%E0%B8%B5+%E0%B8%A3%E0%B8%B5%E0%B8%AA%E0%B8%AD%E0%B8%A3%E0%B9%8C%E0%B8%97/data=!4m10!3m9!1s0x311dbb963bfb0c57:0xb84924b44f7ec6d0!5m2!4m1!1i2!8m2!3d14.2741866!4d101.0927753!16s%2Fg%2F11bwjj557z!19sChIJVwz7O5a7HTER0MZ-T7QkSbg?authuser=0&hl=th&rclk=1,,089 782 1989,73FV+M4C ช่อมาลี รีสอร์ท อำเภอบ้านนา นครนายก 26110,,,"{'1': 0, '2': 0, '3': 11, '4': 14, '5': 22}",14.2741866,101.0927753
AC091,ชิดชลรีสอร์ท,รีสอร์ท,4.1,31,https://www.google.com/maps/place/%E0%B8%8A%E0%B8%B4%E0%B8%94%E0%B8%8A%E0%B8%A5%E0%B8%A3%E0%B8%B5%E0%B8%AA%E0%B8%AD%E0%B8%A3%E0%B9%8C%E0%B8%97/data=!4m10!3m9!1s0x311db24713535813:0xed3afbbaebe91ee5!5m2!4m1!1i2!8m2!3d14.2350522!4d101.2765298!16s%2Fg%2F1hm5y24dc!19sChIJE1hTE0eyHTER5R7p67r7Ou0?authuser=0&hl=th&rclk=1,http://www.chidcholresort.com/,081 842 7368,ชิดชลรีสอร์ท 11 หมู่ที่ 1 ตำบล ศรีนาวา อำเภอ เมืองนครนายก นครนายก 26000,,,"{'1': 1, '2': 0, '3': 7, '4': 10, '5': 13}",14.2350522,101.2765298
AC092,เชอร์รี่ รีสอร์ท,รีสอร์ท,4.3,80,https://www.google.com/maps/place/%E0%B9%80%E0%B8%8A%E0%B8%AD%E0%B8%A3%E0%B9%8C%E0%B8%A3%E0%B8%B5%E0%B9%88+%E0%B8%A3%E0%B8%B5%E0%B8%AA%E0%B8%AD%E0%B8%A3%E0%B9%8C%E0%B8%97/data=!4m10!3m9!1s0x311dae29f959c139:0xc6075adc782d09a8!5m2!4m1!1i2!8m2!3d14.3021788!4d101.301719!16s%2Fg%2F11b6gjkcqy!19sChIJOcFZ-SmuHTERqAkteNxaB8Y?authuser=0&hl=th&rclk=1,http://www.facebook.com/cherryresort.in.th,082 974 7453,เชอร์รี่ รีสอร์ท 283 หมู่ 2 ตำบล สาริกา เมือง นครนายก 26000,,,"{'1': 4, '2': 3, '3': 8, '4': 15, '5': 50}",14.3021788,101.301719
AC093,ไชยภาษี รีสอร์ท,รีสอร์ท,4.5,41,https://www.google.com/maps/place/%E0%B9%84%E0%B8%8A%E0%B8%A2%E0%B8%A0%E0%B8%B2%E0%B8%A9%E0%B8%B5+%E0%B8%A3%E0%B8%B5%E0%B8%AA%E0%B8%AD%E0%B8%A3%E0%B9%8C%E0%B8%97/data=!4m10!3m9!1s0x311db3854d8fc40b:0x3335b09223a87e6c!5m2!4m1!1i2!8m2!3d14.3103292!4d101.315894!16s%2Fg%2F11gydfcz5p!19sChIJC8SPTYWzHTERbH6oI5KwNTM?authuser=0&hl=th&rclk=1,,086 942 9635,ไชยภาษี รีสอร์ท 159 หมู่ 3 อำเภอ เมือง ตำบล หินตั้ง อำเภอเมืองนครนายก นครนายก 26000,,,"{'1': 1, '2': 0, '3': 4, '4': 7, '5': 29}",14.3103292,101.315894
AC094,ณ.คอนยกรีสอร์ท,รีสอร์ท,4.4,17,https://www.google.com/maps/place/%E0%B8%93.%E0%B8%84%E0%B8%AD%E0%B8%99%E0%B8%A2%E0%B8%81%E0%B8%A3%E0%B8%B5%E0%B8%AA%E0%B8%AD%E0%B8%A3%E0%B9%8C%E0%B8%97/data=!4m10!3m9!1s0x311db5ce84c245b7:0x135826d24260a251!5m2!4m1!1i2!8m2!3d14.3210601!4d101.304573!16s%2Fg%2F11frjg0ytw!19sChIJt0XChM61HTERUaJgQtImWBM?authuser=0&hl=th&rclk=1,,081 303 2343,363 ณ.คอนยกรีสอร์ท ตำบล สาริกา อำเภอเมืองนครนายก นครนายก 26000,,,"{'1': 1, '2': 0, '3': 1, '4': 5, '5': 10}",14.3210601,101.304573
AC095,ณดลรีสอร์ท,รีสอร์ท,3.9,57,https://www.google.com/maps/place/%E0%B8%93%E0%B8%94%E0%B8%A5%E0%B8%A3%E0%B8%B5%E0%B8%AA%E0%B8%AD%E0%B8%A3%E0%B9%8C%E0%B8%97/data=!4m10!3m9!1s0x311dbbf6ddcbbddb:0xaa76a167723d0c3f!5m2!4m1!1i2!8m2!3d14.2906561!4d101.0754204!16s%2Fg%2F11bxfxbmhm!19sChIJ273L3fa7HTERPww9cmehdqo?authuser=0&hl=th&rclk=1,,087 924 4939,ณดลรีสอร์ท ตำบล ป่าขะ อำเภอบ้านนา นครนายก 26110,,,"{'1': 4, '2': 5, '3': 10, '4': 12, '5': 26}",14.2906561,101.0754204
AC096,เดอะริเวอร์โฮมรีสอร์ท,รีสอร์ท,4.4,60,https://www.google.com/maps/place/%E0%B9%80%E0%B8%94%E0%B8%AD%E0%B8%B0%E0%B8%A3%E0%B8%B4%E0%B9%80%E0%B8%A7%E0%B8%AD%E0%B8%A3%E0%B9%8C%E0%B9%82%E0%B8%AE%E0%B8%A1%E0%B8%A3%E0%B8%B5%E0%B8%AA%E0%B8%AD%E0%B8%A3%E0%B9%8C%E0%B8%97/data=!4m10!3m9!1s0x311db57ff1aa352f:0x3b51ff868fa5048a!5m2!4m1!1i2!8m2!3d14.2951063!4d101.3023098!16s%2Fg%2F11k7s7vd1s!19sChIJLzWq8X-1HTERigSlj4b_UTs?authuser=0&hl=th&rclk=1,http://www.facebook.com/theriverhome88/,062 614 6965,เดอะริเวอร์โฮมรีสอร์ท 177 ตำบล หินตั้ง อำเภอเมืองนครนายก นครนายก 26000,,,"{'1': 3, '2': 0, '3': 5, '4': 16, '5': 36}",14.2951063,101.3023098
AC097,ต้นธาร รีสอร์ท,โรงแรม,4.1,11,https://www.google.com/maps/place/%E0%B8%95%E0%B9%89%E0%B8%99%E0%B8%98%E0%B8%B2%E0%B8%A3+%E0%B8%A3%E0%B8%B5%E0%B8%AA%E0%B8%AD%E0%B8%A3%E0%B9%8C%E0%B8%97/data=!4m10!3m9!1s0x311dcb26ccc49661:0x40698adfd2c3343f!5m2!4m1!1i2!8m2!3d14.2797662!4d101.2815337!16s%2Fg%2F11txdwbpgq!19sChIJYZbEzCbLHTERPzTD0t-KaUA?authuser=0&hl=th&rclk=1,,082 414 8080,ต้นธาร รีสอร์ท ตำบล สาริกา อำเภอเมืองนครนายก นครนายก 26000,,,"{'1': 0, '2': 0, '3': 4, '4': 2, '5': 5}",14.2797662,101.2815337
AC098,ต้นรักรีสอร์ท,โรงแรม,3.8,209,https://www.google.com/maps/place/%E0%B8%95%E0%B9%89%E0%B8%99%E0%B8%A3%E0%B8%B1%E0%B8%81%E0%B8%A3%E0%B8%B5%E0%B8%AA%E0%B8%AD%E0%B8%A3%E0%B9%8C%E0%B8%97/data=!4m10!3m9!1s0x311da18930231ef7:0x47574e9f3ddaa8a6!5m2!4m1!1i2!8m2!3d14.0998794!4d100.9539294!16s%2Fg%2F11b6d76487!19sChIJ9x4jMImhHTERpqjaPZ9OV0c?authuser=0&hl=th&rclk=1,http://www.tonrakresort.com/,088 570 7938,ต้นรักรีสอร์ท 10/5 ต.คลองใหญ่ อำเภอองครักษ์ นครนายก 26120,,,"{'1': 15, '2': 14, '3': 48, '4': 49, '5': 83}",14.0998794,100.9539294
AC099,ทรัพย์ธารา รีสอร์ท,รีสอร์ท,4.6,13,https://www.google.com/maps/place/%E0%B8%97%E0%B8%A3%E0%B8%B1%E0%B8%9E%E0%B8%A2%E0%B9%8C%E0%B8%98%E0%B8%B2%E0%B8%A3%E0%B8%B2+%E0%B8%A3%E0%B8%B5%E0%B8%AA%E0%B8%AD%E0%B8%A3%E0%B9%8C%E0%B8%97/data=!4m10!3m9!1s0x311db31ea8513c3b:0x64f8bdea6a0b927a!5m2!4m1!1i2!8m2!3d14.2481578!4d101.2751485!16s%2Fg%2F11hz78058s!19sChIJOzxRqB6zHTERepILauq9-GQ?authuser=0&hl=th&rclk=1,,095 492 2456,ทรัพย์ธารา รีสอร์ท ตำบล ศรีนาวา เมือง นครนายก 26000,,,"{'1': 0, '2': 0, '3': 2, '4': 1, '5': 10}",14.2481578,101.2751485
AC100,ทวีลาภ การ์เด้น รีสอร์ท เขื่อนขุนด่าน นครนายก,รีสอร์ท,4.3,26,https://www.google.com/maps/place/%E0%B8%97%E0%B8%A7%E0%B8%B5%E0%B8%A5%E0%B8%B2%E0%B8%A0+%E0%B8%81%E0%B8%B2%E0%B8%A3%E0%B9%8C%E0%B9%80%E0%B8%94%E0%B9%89%E0%B8%99+%E0%B8%A3%E0%B8%B5%E0%B8%AA%E0%B8%AD%E0%B8%A3%E0%B9%8C%E0%B8%97+%E0%B9%80%E0%B8%82%E0%B8%B7%E0%B9%88%E0%B8%AD%E0%B8%99%E0%B8%82%E0%B8%B8%E0%B8%99%E0%B8%94%E0%B9%88%E0%B8%B2%E0%B8%99+%E0%B8%99%E0%B8%84%E0%B8%A3%E0%B8%99%E0%B8%B2%E0%B8%A2%E0%B8%81/data=!4m10!3m9!1s0x311db58c1894cc47:0xffc2c83964cf3e37!5m2!4m1!1i2!8m2!3d14.3059205!4d101.3145658!16s%2Fg%2F11f631d_q2!19sChIJR8yUGIy1HTERNz7PZDnIwv8?authuser=0&hl=th&rclk=1,https://www.facebook.com/%E0%B8%97%E0%B8%A7%E0%B8%B5%E0%B8%A5%E0%B8%B2%E0%B8%A0-%E0%B8%81%E0%B8%B2%E0%B8%A3%E0%B9%8C%E0%B9%80%E0%B8%94%E0%B9%89%E0%B8%99%E0%B8%97%E0%B9%8C-%E0%B8%A3%E0%B8%B5%E0%B8%AA%E0%B8%AD%E0%B8%A3%E0%B9%8C%E0%B8%97-1462940923839533/,086 071 0488,8847+9R8 ทวีลาภ การ์เด้น รีสอร์ท เขื่อนขุนด่าน นครนายก นย.4016 ตำบล หินตั้ง อำเภอเมืองนครนายก นครนายก 26000,,,"{'1': 0, '2': 1, '3': 4, '4': 7, '5': 14}",14.3059205,101.3145658
AC101,ทองกวาว รีสอร์ท,โรงแรม,4.5,22,https://www.google.com/maps/place/%E0%B8%97%E0%B8%AD%E0%B8%87%E0%B8%81%E0%B8%A7%E0%B8%B2%E0%B8%A7+%E0%B8%A3%E0%B8%B5%E0%B8%AA%E0%B8%AD%E0%B8%A3%E0%B9%8C%E0%B8%97/data=!4m10!3m9!1s0x311db14f59ddbb8d:0x8710147d8af15023!5m2!4m1!1i2!8m2!3d14.2070702!4d101.2478579!16s%2Fg%2F11h1lcr2ym!19sChIJjbvdWU-xHTERI1Dxin0UEIc?authuser=0&hl=th&rclk=1,,095 886 3515,664X+R4H ทองกวาว รีสอร์ท ตำบล ศรีนาวา อำเภอเมืองนครนายก นครนายก 26000,,,"{'1': 2, '2': 0, '3': 0, '4': 4, '5': 16}",14.2070702,101.2478579
AC102,ท๊อฟฟี่ เฮ้าส์ รีสอร์ท,รีสอร์ท,3.8,188,https://www.google.com/maps/place/%E0%B8%97%E0%B9%8A%E0%B8%AD%E0%B8%9F%E0%B8%9F%E0%B8%B5%E0%B9%88+%E0%B9%80%E0%B8%AE%E0%B9%89%E0%B8%B2%E0%B8%AA%E0%B9%8C+%E0%B8%A3%E0%B8%B5%E0%B8%AA%E0%B8%AD%E0%B8%A3%E0%B9%8C%E0%B8%97/data=!4m10!3m9!1s0x311db38cd799f64d:0x8726a4185e9c51b3!5m2!4m1!1i2!8m2!3d14.320801!4d101.3040503!16s%2Fg%2F1pzwwc035!19sChIJTfaZ14yzHTERs1GcXhikJoc?authuser=0&hl=th&rclk=1,http://www.toffyhouseresort.com/,084 694 7073,"ท๊อฟฟี่ เฮ้าส์ รีสอร์ท 577 ม.1/1, ต.สาริกา อ.เมือง จ.นครนายก, 26000",,,"{'1': 12, '2': 19, '3': 36, '4': 53, '5': 68}",14.320801,101.3040503
AC103,ทัตดาว รีสอร์ท,โรงแรม,4.7,9,https://www.google.com/maps/place/%E0%B8%97%E0%B8%B1%E0%B8%95%E0%B8%94%E0%B8%B2%E0%B8%A7+%E0%B8%A3%E0%B8%B5%E0%B8%AA%E0%B8%AD%E0%B8%A3%E0%B9%8C%E0%B8%97/data=!4m10!3m9!1s0x311db991359ee1fb:0x9b1218678b7729e5!5m2!4m1!1i2!8m2!3d14.3144825!4d101.1277659!16s%2Fg%2F11g0dppqxp!19sChIJ--GeNZG5HTER5Sl3i2cYEps?authuser=0&hl=th&rclk=1,,082 294 9489,ทัตดาว รีสอร์ท 369 ตำบล ศรีกะอาง อำเภอบ้านนา นครนายก 26110,,,"{'1': 0, '2': 0, '3': 0, '4': 3, '5': 6}",14.3144825,101.1277659
AC104,ท่าชัยโฮมสเตย์,ที่พักเป็นกลุ่ม,4.2,102,https://www.google.com/maps/place/%E0%B8%97%E0%B9%88%E0%B8%B2%E0%B8%8A%E0%B8%B1%E0%B8%A2%E0%B9%82%E0%B8%AE%E0%B8%A1%E0%B8%AA%E0%B9%80%E0%B8%95%E0%B8%A2%E0%B9%8C/data=!4m10!3m9!1s0x311db3a363ebcd1f:0xa00e94f927606524!5m2!4m1!1i2!8m2!3d14.2828145!4d101.2998137!16s%2Fg%2F1hdzw6n0p!19sChIJH83rY6OzHTERJGVgJ_mUDqA?authuser=0&hl=th&rclk=1,,081 889 2978,ท่าชัยโฮมสเตย์ 41 1 ตำบล หินตั้ง อำเภอเมืองนครนายก นครนายก 26000,,,"{'1': 2, '2': 8, '3': 14, '4': 23, '5': 55}",14.2828145,101.2998137
AC105,ท่าน้ำขุนด่านรีสอร์ท นครนายก,รีสอร์ท,4.2,66,https://www.google.com/maps/place/%E0%B8%97%E0%B9%88%E0%B8%B2%E0%B8%99%E0%B9%89%E0%B8%B3%E0%B8%82%E0%B8%B8%E0%B8%99%E0%B8%94%E0%B9%88%E0%B8%B2%E0%B8%99%E0%B8%A3%E0%B8%B5%E0%B8%AA%E0%B8%AD%E0%B8%A3%E0%B9%8C%E0%B8%97+%E0%B8%99%E0%B8%84%E0%B8%A3%E0%B8%99%E0%B8%B2%E0%B8%A2%E0%B8%81/data=!4m7!3m6!1s0x311db553f840a007:0xb53318493df5d976!8m2!3d14.2997067!4d101.3017006!16s%2Fg%2F11t2_k7x_0!19sChIJB6BA-FO1HTERdtn1PUkYM7U?authuser=0&hl=th&rclk=1,http://web.facebook.com/%E0%B8%97%E0%B9%88%E0%B8%B2%E0%B8%99%E0%B9%89%E0%B8%B3%E0%B8%82%E0%B8%B8%E0%B8%99%E0%B8%94%E0%B9%88%E0%B8%B2%E0%B8%99-%E0%B8%A3%E0%B8%B5%E0%B8%AA%E0%B8%AD%E0%B8%A3%E0%B9%8C%E0%B8%97-%E0%B8%99%E0%B8%84%E0%B8%A3%E0%B8%99%E0%B8%B2%E0%B8%A2%E0%B8%81-104878898933905,096 146 9544,ท่าน้ำขุนด่านรีสอร์ท นครนายก 276 ตำบล สาริกา อำเภอเมือง นครนายก 26000,,,"{'1': 3, '2': 4, '3': 7, '4': 18, '5': 34}",14.2997067,101.3017006
AC106,ทิวเขา รีสอร์ท นครนายก,รีสอร์ท,4.4,26,https://www.google.com/maps/place/%E0%B8%97%E0%B8%B4%E0%B8%A7%E0%B9%80%E0%B8%82%E0%B8%B2+%E0%B8%A3%E0%B8%B5%E0%B8%AA%E0%B8%AD%E0%B8%A3%E0%B9%8C%E0%B8%97+%E0%B8%99%E0%B8%84%E0%B8%A3%E0%B8%99%E0%B8%B2%E0%B8%A2%E0%B8%81/data=!4m10!3m9!1s0x311db7a485249169:0xb9a1c0f12f3d3c4!5m2!4m1!1i2!8m2!3d14.3165697!4d101.1975586!16s%2Fg%2F11s8z5522h!19sChIJaZEkhaS3HTERxNPzEg8cmgs?authuser=0&hl=th&rclk=1,https://www.facebook.com/tiewkhaoresortt/,,ทิวเขา รีสอร์ท นครนายก ทิวเขา รีสอร์ท 197 ตำบล เขาพระ อำเภอเมืองนครนายก นครนายก 26000,,,"{'1': 0, '2': 1, '3': 4, '4': 5, '5': 16}",14.3165697,101.1975586
AC107,ที่พักนครนายก บ้านคลองเรือรีสอร์ท hotels,โรงแรม,4.7,9,https://www.google.com/maps/place/%E0%B8%97%E0%B8%B5%E0%B9%88%E0%B8%9E%E0%B8%B1%E0%B8%81%E0%B8%99%E0%B8%84%E0%B8%A3%E0%B8%99%E0%B8%B2%E0%B8%A2%E0%B8%81+%E0%B8%9A%E0%B9%89%E0%B8%B2%E0%B8%99%E0%B8%84%E0%B8%A5%E0%B8%AD%E0%B8%87%E0%B9%80%E0%B8%A3%E0%B8%B7%E0%B8%AD%E0%B8%A3%E0%B8%B5%E0%B8%AA%E0%B8%AD%E0%B8%A3%E0%B9%8C%E0%B8%97+hotels/data=!4m10!3m9!1s0x311db15e7981d183:0x1c0719c76e2b4b99!5m2!4m1!1i2!8m2!3d14.2607691!4d101.1726657!16s%2Fg%2F11fb0k4962!19sChIJg9GBeV6xHTERmUsrbscZBxw?authuser=0&hl=th&rclk=1,https://hotel-14676.business.site/,081 410 4864,ที่พักนครนายก บ้านคลองเรือรีสอร์ท hotels 92/3 เมือง นครนายก,,,"{'1': 0, '2': 0, '3': 0, '4': 3, '5': 6}",14.2607691,101.1726657
AC108,ธนสาร ดงละคร,รีสอร์ท,4.9,21,https://www.google.com/maps/place/%E0%B8%98%E0%B8%99%E0%B8%AA%E0%B8%B2%E0%B8%A3+%E0%B8%94%E0%B8%87%E0%B8%A5%E0%B8%B0%E0%B8%84%E0%B8%A3/data=!4m10!3m9!1s0x311daf2bf2041197:0xa78cfb9ec7590b47!5m2!4m1!1i2!8m2!3d14.161984!4d101.165883!16s%2Fg%2F11flvvmxqh!19sChIJlxEE8iuvHTERRwtZx577jKc?authuser=0&hl=th&rclk=1,https://www.facebook.com/Tanasarn-Donglakorn-113156330311600/,097 297 6781,"5568+Q9R ธนสาร ดงละคร, Unnamed Road, ตำบล ดงละคร อำเภอเมืองนครนายก นครนายก 26000",,,"{'1': 0, '2': 0, '3': 0, '4': 3, '5': 18}",14.161984,101.165883
AC109,ธารน้ำริเวอร์นครนายก,รีสอร์ท,4.4,133,https://www.google.com/maps/place/%E0%B8%98%E0%B8%B2%E0%B8%A3%E0%B8%99%E0%B9%89%E0%B8%B3%E0%B8%A3%E0%B8%B4%E0%B9%80%E0%B8%A7%E0%B8%AD%E0%B8%A3%E0%B9%8C%E0%B8%99%E0%B8%84%E0%B8%A3%E0%B8%99%E0%B8%B2%E0%B8%A2%E0%B8%81/data=!4m10!3m9!1s0x311db54c7243ef85:0x9d06c43b3547b2ad!5m2!4m1!1i2!8m2!3d14.3050247!4d101.3064828!16s%2Fg%2F11nx2gqbjm!19sChIJhe9Dcky1HTERrbJHNTvEBp0?authuser=0&hl=th&rclk=1,,085 590 3773,648 ธารน้ำริเวอร์นครนายก ตำบล สาริกา นครนายก 26000,,,"{'1': 4, '2': 4, '3': 16, '4': 26, '5': 83}",14.3050247,101.3064828
AC110,ธารา ชลพฤกษ์ รีสอร์ท,รีสอร์ท,4,1583,https://www.google.com/maps/place/%E0%B8%98%E0%B8%B2%E0%B8%A3%E0%B8%B2+%E0%B8%8A%E0%B8%A5%E0%B8%9E%E0%B8%A4%E0%B8%81%E0%B8%A9%E0%B9%8C+%E0%B8%A3%E0%B8%B5%E0%B8%AA%E0%B8%AD%E0%B8%A3%E0%B9%8C%E0%B8%97/data=!4m10!3m9!1s0x311dbb2bee0eee43:0xd302cb418fe2fabf!5m2!4m1!1i2!8m2!3d14.22406!4d101.107469!16s%2Fg%2F1tf4bhbq!19sChIJQ-4O7iu7HTERv_rij0HLAtM?authuser=0&hl=th&rclk=1,http://clpresort.com/,037 614 444,ธารา ชลพฤกษ์ รีสอร์ท 64 ถนน รังสิต - นครนายก ตำบล บ้านพร้าว อำเภอบ้านนา นครนายก 26110,,,"{'1': 62, '2': 53, '3': 294, '4': 523, '5': 651}",14.22406,101.107469
AC111,ธาริดา แกรนด์วิว รีสอร์ท,รีสอร์ท,3.8,93,https://www.google.com/maps/place/%E0%B8%98%E0%B8%B2%E0%B8%A3%E0%B8%B4%E0%B8%94%E0%B8%B2+%E0%B9%81%E0%B8%81%E0%B8%A3%E0%B8%99%E0%B8%94%E0%B9%8C%E0%B8%A7%E0%B8%B4%E0%B8%A7+%E0%B8%A3%E0%B8%B5%E0%B8%AA%E0%B8%AD%E0%B8%A3%E0%B9%8C%E0%B8%97/data=!4m10!3m9!1s0x311db47c6cf732ef:0xb49cb4df0acbf299!5m2!4m1!1i2!8m2!3d14.3024796!4d101.2933438!16s%2Fg%2F1vgw6336!19sChIJ7zL3bHy0HTERmfLLCt-0nLQ?authuser=0&hl=th&rclk=1,http://www.taridagrandview.com/,,"124, ธาริดา แกรนด์วิว รีสอร์ท สาริกา-นางรอง ตำบล สาริกา อำเภอเมืองนครนายก นครนายก 26000",,,"{'1': 4, '2': 6, '3': 25, '4': 24, '5': 34}",14.3024796,101.2933438
AC112,ธีระดา​ รีสอร์ท​ นครนายก,รีสอร์ท,4.3,27,https://www.google.com/maps/place/%E0%B8%98%E0%B8%B5%E0%B8%A3%E0%B8%B0%E0%B8%94%E0%B8%B2%E2%80%8B+%E0%B8%A3%E0%B8%B5%E0%B8%AA%E0%B8%AD%E0%B8%A3%E0%B9%8C%E0%B8%97%E2%80%8B+%E0%B8%99%E0%B8%84%E0%B8%A3%E0%B8%99%E0%B8%B2%E0%B8%A2%E0%B8%81/data=!4m10!3m9!1s0x311db48e56b60b81:0x60367cc3b3c871aa!5m2!4m1!1i2!8m2!3d14.3110382!4d101.3032852!16s%2Fg%2F11bx2g2y5_!19sChIJgQu2Vo60HTERqnHIs8N8NmA?authuser=0&hl=th&rclk=1,http://www.facebook.com/theeradaresort,066 071 5865,ธีระดา​ รีสอร์ท​ นครนายก 130 ม.1 ซอย สาริกา-นางรอง 42 ตำบล สาริกา อำเภอเมืองนครนายก นครนายก 26000,,,"{'1': 2, '2': 1, '3': 3, '4': 2, '5': 19}",14.3110382,101.3032852
AC113,นาคพิรุณรีสอร์ท,รีสอร์ท,4.4,10,https://www.google.com/maps/place/%E0%B8%99%E0%B8%B2%E0%B8%84%E0%B8%9E%E0%B8%B4%E0%B8%A3%E0%B8%B8%E0%B8%93%E0%B8%A3%E0%B8%B5%E0%B8%AA%E0%B8%AD%E0%B8%A3%E0%B9%8C%E0%B8%97/data=!4m10!3m9!1s0x311db15c159ff793:0x82d46078afe4b513!5m2!4m1!1i2!8m2!3d14.278925!4d101.2454221!16s%2Fg%2F11c1xcx35k!19sChIJk_efFVyxHTERE7Xkr3hg1II?authuser=0&hl=th&rclk=1,https://www.facebook.com/profile.php?id=100084816199273,064 986 1166,"76HW+H5F นาคพิรุณรีสอร์ท Unnamed Road,, ตำบล สาริกา อำเภอเมืองนครนายก นครนายก 26000",,,"{'1': 1, '2': 0, '3': 0, '4': 2, '5': 7}",14.278925,101.2454221
AC114,นารา รีสอร์ท NaraResort นครนายก,โรงแรม,4.2,23,https://www.google.com/maps/place/%E0%B8%99%E0%B8%B2%E0%B8%A3%E0%B8%B2+%E0%B8%A3%E0%B8%B5%E0%B8%AA%E0%B8%AD%E0%B8%A3%E0%B9%8C%E0%B8%97+NaraResort+%E0%B8%99%E0%B8%84%E0%B8%A3%E0%B8%99%E0%B8%B2%E0%B8%A2%E0%B8%81/data=!4m10!3m9!1s0x311dbb3cb4e72fff:0x6b411a67f81fa878!5m2!4m1!1i2!8m2!3d14.2768468!4d101.1609349!16s%2Fg%2F11j86k2fwp!19sChIJ_y_ntDy7HTEReKgf-GcaQWs?authuser=0&hl=th&rclk=1,,086 019 9192,75G6+P9M นารา รีสอร์ท NaraResort นครนายก Unnamed Road ตำบล พรหมณี อำเภอเมืองนครนายก นครนายก 26000,,,"{'1': 1, '2': 1, '3': 4, '4': 3, '5': 14}",14.2768468,101.1609349
AC115,นาวา รีสอร์ท,โฮสเทล,4.2,96,https://www.google.com/maps/place/%E0%B8%99%E0%B8%B2%E0%B8%A7%E0%B8%B2+%E0%B8%A3%E0%B8%B5%E0%B8%AA%E0%B8%AD%E0%B8%A3%E0%B9%8C%E0%B8%97/data=!4m10!3m9!1s0x311dadd772cd2231:0xbfd4f181367a7a53!5m2!4m1!1i2!8m2!3d14.1699278!4d101.2558352!16s%2Fg%2F11cn8s55dl!19sChIJMSLNctetHTERU3p6NoHx1L8?authuser=0&hl=th&rclk=1,,037 349 758,นาวา รีสอร์ท 297 หมู่ 1 ถ. สุวรรณศร ตำบล เกาะหวาย อำเภอปากพลี นครนายก 26130,,,"{'1': 1, '2': 2, '3': 17, '4': 37, '5': 39}",14.1699278,101.2558352
AC116,นาหินลาดรีสอร์ท นครนายก,รีสอร์ท,4,84,https://www.google.com/maps/place/%E0%B8%99%E0%B8%B2%E0%B8%AB%E0%B8%B4%E0%B8%99%E0%B8%A5%E0%B8%B2%E0%B8%94%E0%B8%A3%E0%B8%B5%E0%B8%AA%E0%B8%AD%E0%B8%A3%E0%B9%8C%E0%B8%97+%E0%B8%99%E0%B8%84%E0%B8%A3%E0%B8%99%E0%B8%B2%E0%B8%A2%E0%B8%81/data=!4m10!3m9!1s0x311c4d54ce9e3b91:0x908939517d266b53!5m2!4m1!1i2!8m2!3d14.2258583!4d101.3448403!16s%2Fg%2F1hdz_4192!19sChIJkTuezlRNHDERU2smfVE5iZA?authuser=0&hl=th&rclk=1,,062 289 1419,นาหินลาดรีสอร์ท นครนายก นาหินลาดรีสอร์ท ตำบล นาหินลาด อำเภอปากพลี นครนายก 26130,,,"{'1': 7, '2': 2, '3': 12, '4': 24, '5': 39}",14.2258583,101.3448403
AC117,น้ำมนต์อพาร์ทเมนท์,โรงแรม,3.3,82,https://www.google.com/maps/place/%E0%B8%99%E0%B9%89%E0%B8%B3%E0%B8%A1%E0%B8%99%E0%B8%95%E0%B9%8C%E0%B8%AD%E0%B8%9E%E0%B8%B2%E0%B8%A3%E0%B9%8C%E0%B8%97%E0%B9%80%E0%B8%A1%E0%B8%99%E0%B8%97%E0%B9%8C/data=!4m10!3m9!1s0x311dae2b531cffeb:0xa6873da65336e5c7!5m2!4m1!1i2!8m2!3d14.2025263!4d101.2071819!16s%2Fg%2F1hm69fbxn!19sChIJ6_8cUyuuHTERx-U2U6Y9h6Y?authuser=0&hl=th&rclk=1,,080 567 2142,6634+2V7 น้ำมนต์อพาร์ทเมนท์ ตำบล ท่าช้าง อำเภอเมืองนครนายก นครนายก 26000,,,"{'1': 15, '2': 5, '3': 22, '4': 23, '5': 17}",14.2025263,101.2071819
AC118,เนเจอร์วิว รีสอร์ท,รีสอร์ท,4.2,33,https://www.google.com/maps/place/%E0%B9%80%E0%B8%99%E0%B9%80%E0%B8%88%E0%B8%AD%E0%B8%A3%E0%B9%8C%E0%B8%A7%E0%B8%B4%E0%B8%A7+%E0%B8%A3%E0%B8%B5%E0%B8%AA%E0%B8%AD%E0%B8%A3%E0%B9%8C%E0%B8%97/data=!4m10!3m9!1s0x311db17fdd613cc1:0x82c42cb914e56eea!5m2!4m1!1i2!8m2!3d14.285796!4d101.217396!16s%2Fg%2F11nsnlypcp!19sChIJwTxh3X-xHTER6m7lFLksxII?authuser=0&hl=th&rclk=1,,061 401 9178,"เนเจอร์วิว รีสอร์ท, Unnamed Road ตำบล เขาพระ อำเภอเมืองนครนายก นครนายก 26000",,,"{'1': 2, '2': 2, '3': 3, '4': 6, '5': 20}",14.285796,101.217396
AC119,ในเขาคาเฟ่ แอนด์ รีสอร์ท @บ้านนา,ที่พักที่มีบริการต่าง ๆ,4.4,67,https://www.google.com/maps/place/%E0%B9%83%E0%B8%99%E0%B9%80%E0%B8%82%E0%B8%B2%E0%B8%84%E0%B8%B2%E0%B9%80%E0%B8%9F%E0%B9%88+%E0%B9%81%E0%B8%AD%E0%B8%99%E0%B8%94%E0%B9%8C+%E0%B8%A3%E0%B8%B5%E0%B8%AA%E0%B8%AD%E0%B8%A3%E0%B9%8C%E0%B8%97+@%E0%B8%9A%E0%B9%89%E0%B8%B2%E0%B8%99%E0%B8%99%E0%B8%B2/data=!4m10!3m9!1s0x311db948d1ce650d:0xb43ab555dbc238db!5m2!4m1!1i2!8m2!3d14.3665542!4d101.1313781!16s%2Fg%2F11sx0g4g54!19sChIJDWXO0Ui5HTER2zjC21W1OrQ?authuser=0&hl=th&rclk=1,,097 129 9896,"99, ในเขาคาเฟ่ แอนด์ รีสอร์ท @บ้านนา, ตำบล เขาเพิ่ม อำเภอบ้านนา นครนายก 26110",,,"{'1': 3, '2': 1, '3': 6, '4': 14, '5': 43}",14.3665542,101.1313781
AC120,บรรยากาศ รีสอร์ทนครนายก Banyakart at Nakornnayok,รีสอร์ท,4.6,5,https://www.google.com/maps/place/%E0%B8%9A%E0%B8%A3%E0%B8%A3%E0%B8%A2%E0%B8%B2%E0%B8%81%E0%B8%B2%E0%B8%A8+%E0%B8%A3%E0%B8%B5%E0%B8%AA%E0%B8%AD%E0%B8%A3%E0%B9%8C%E0%B8%97%E0%B8%99%E0%B8%84%E0%B8%A3%E0%B8%99%E0%B8%B2%E0%B8%A2%E0%B8%81+Banyakart+at+Nakornnayok/data=!4m10!3m9!1s0x311db3b79961f01f:0xecca1459817d2fce!5m2!4m1!1i2!8m2!3d14.2396103!4d101.3156752!16s%2Fg%2F11t3lhn80f!19sChIJH_BhmbezHTERzi99gVkUyuw?authuser=0&hl=th&rclk=1,https://www.facebook.com/banyakartnakornnayok,064 958 5549,"บรรยากาศ รีสอร์ทนครนายก Banyakart at Nakornnayok, Baan Boongkae, ตำบล นครนายก Pak Pli, นครนายก 26130",,,"{'1': 0, '2': 0, '3': 1, '4': 0, '5': 4}",14.2396103,101.3156752
AC121,บังกะโล ณิก ณิก ทาวน์ (สาขา 2),รีสอร์ท,3.8,22,https://www.google.com/maps/place/%E0%B8%9A%E0%B8%B1%E0%B8%87%E0%B8%81%E0%B8%B0%E0%B9%82%E0%B8%A5+%E0%B8%93%E0%B8%B4%E0%B8%81+%E0%B8%93%E0%B8%B4%E0%B8%81+%E0%B8%97%E0%B8%B2%E0%B8%A7%E0%B8%99%E0%B9%8C+%28%E0%B8%AA%E0%B8%B2%E0%B8%82%E0%B8%B2+2%29/data=!4m10!3m9!1s0x311da3de65aba21f:0x5968f285b460db8a!5m2!4m1!1i2!8m2!3d14.1283356!4d101.0010481!16s%2Fg%2F1pzwcxkgk!19sChIJH6KrZd6jHTERittgtIXyaFk?authuser=0&hl=th&rclk=1,,037 405 124,"บังกะโล ณิก ณิก ทาวน์ (สาขา 2) เลขที่ 99/2 ม.9, ต.ทรายมูล อ.องครักษ์ จ.นครนายก, 26120",,,"{'1': 4, '2': 0, '3': 2, '4': 6, '5': 10}",14.1283356,101.0010481
AC122,บ้าน 222 รีสอร์ท นครนายก,โรงแรม,4.6,63,https://www.google.com/maps/place/%E0%B8%9A%E0%B9%89%E0%B8%B2%E0%B8%99+222+%E0%B8%A3%E0%B8%B5%E0%B8%AA%E0%B8%AD%E0%B8%A3%E0%B9%8C%E0%B8%97+%E0%B8%99%E0%B8%84%E0%B8%A3%E0%B8%99%E0%B8%B2%E0%B8%A2%E0%B8%81/data=!4m10!3m9!1s0x311db5395a54cce7:0x8c1122a4e398893f!5m2!4m1!1i2!8m2!3d14.3053155!4d101.3172949!16s%2Fg%2F11j0j01l9j!19sChIJ58xUWjm1HTERP4mY46QiEYw?authuser=0&hl=th&rclk=1,,089 771 5899,8848+4WF บ้าน 222 รีสอร์ท นครนายก ตำบล หินตั้ง อำเภอเมืองนครนายก นครนายก 26000,,,"{'1': 0, '2': 1, '3': 3, '4': 15, '5': 44}",14.3053155,101.3172949
AC123,บ้านกล้วยกล้วย รีสอร์ท,โรงแรม,4.4,96,https://www.google.com/maps/place/%E0%B8%9A%E0%B9%89%E0%B8%B2%E0%B8%99%E0%B8%81%E0%B8%A5%E0%B9%89%E0%B8%A7%E0%B8%A2%E0%B8%81%E0%B8%A5%E0%B9%89%E0%B8%A7%E0%B8%A2+%E0%B8%A3%E0%B8%B5%E0%B8%AA%E0%B8%AD%E0%B8%A3%E0%B9%8C%E0%B8%97/data=!4m10!3m9!1s0x311db1a6ee1467f7:0x13832cafa71256ed!5m2!4m1!1i2!8m2!3d14.2826261!4d101.2119216!16s%2Fg%2F1tg6mll5!19sChIJ92cU7qaxHTER7VYSp68sgxM?authuser=0&hl=th&rclk=1,,037 386 444,"บ้านกล้วยกล้วย รีสอร์ท 109 Moo 9 T.Khao Phra, A.Mueang,, Nakhon Nayok, 26000",,,"{'1': 2, '2': 0, '3': 11, '4': 30, '5': 53}",14.2826261,101.2119216
AC124,บ้านกลางเขา นครนายก,รีสอร์ท,4.3,18,https://www.google.com/maps/place/%E0%B8%9A%E0%B9%89%E0%B8%B2%E0%B8%99%E0%B8%81%E0%B8%A5%E0%B8%B2%E0%B8%87%E0%B9%80%E0%B8%82%E0%B8%B2+%E0%B8%99%E0%B8%84%E0%B8%A3%E0%B8%99%E0%B8%B2%E0%B8%A2%E0%B8%81/data=!4m10!3m9!1s0x311db3b7689ca451:0x364d73abc0c8829f!5m2!4m1!1i2!8m2!3d14.2939289!4d101.2902861!16s%2Fg%2F11c1pv117w!19sChIJUaScaLezHTERn4LIwKtzTTY?authuser=0&hl=th&rclk=1,,082 466 7888,314 บ้านกลางเขา นครนายก ตำบล สาริกา อำเภอเมืองนครนายก นครนายก 26000,,,"{'1': 1, '2': 0, '3': 2, '4': 5, '5': 10}",14.2939289,101.2902861
AC125,บ้านกลางสวน นครนายก,โฮสเทล,4.6,64,https://www.google.com/maps/place/%E0%B8%9A%E0%B9%89%E0%B8%B2%E0%B8%99%E0%B8%81%E0%B8%A5%E0%B8%B2%E0%B8%87%E0%B8%AA%E0%B8%A7%E0%B8%99+%E0%B8%99%E0%B8%84%E0%B8%A3%E0%B8%99%E0%B8%B2%E0%B8%A2%E0%B8%81/data=!4m10!3m9!1s0x311db3cccc4ee76b:0x7111e85ffdfa6a5e!5m2!4m1!1i2!8m2!3d14.2917192!4d101.2932555!16s%2Fg%2F1pzwhqn20!19sChIJa-dOzMyzHTERXmr6_V_oEXE?authuser=0&hl=th&rclk=1,,081 346 1056,"บ้านกลางสวน นครนายก 7/2 ม.2, ถ.สาริกา - นางรอง, ต.สาริกา อ.เมืองนครนายก จ.นครนายก, 26000",,เกสต์เฮาส์แสนอบอุ่นที่รายล้อมไปด้วยสวนผลไม้ มีพื้นที่ทำบาร์บีคิว กิจกรรมล่องแพ และท่าเรือเชื่อมกับแม่น้ำโดยตรง,"{'1': 1, '2': 0, '3': 6, '4': 11, '5': 46}",14.2917192,101.2932555
AC126,บ้านกิตติ ที่พักรายวัน/เดือน,ที่พักแรมในอาคาร,3.3,12,https://www.google.com/maps/place/%E0%B8%9A%E0%B9%89%E0%B8%B2%E0%B8%99%E0%B8%81%E0%B8%B4%E0%B8%95%E0%B8%95%E0%B8%B4+%E0%B8%97%E0%B8%B5%E0%B9%88%E0%B8%9E%E0%B8%B1%E0%B8%81%E0%B8%A3%E0%B8%B2%E0%B8%A2%E0%B8%A7%E0%B8%B1%E0%B8%99%2F%E0%B9%80%E0%B8%94%E0%B8%B7%E0%B8%AD%E0%B8%99/data=!4m10!3m9!1s0x311dafd38802e88f:0x9b41e40fa6bf907d!5m2!4m1!1i2!8m2!3d14.2022932!4d101.2029701!16s%2Fg%2F11bzt6f_dt!19sChIJj-gCiNOvHTERfZC_pg_kQZs?authuser=0&hl=th&rclk=1,,095 957 1851,6623+W59 บ้านกิตติ ที่พักรายวัน/เดือน ตำบล ท่าช้าง อำเภอเมืองนครนายก นครนายก 26000,,,"{'1': 4, '2': 0, '3': 2, '4': 1, '5': 5}",14.2022932,101.2029701
AC127,บ้านขนมปังขิง,รีสอร์ท,4.3,375,https://www.google.com/maps/place/%E0%B8%9A%E0%B9%89%E0%B8%B2%E0%B8%99%E0%B8%82%E0%B8%99%E0%B8%A1%E0%B8%9B%E0%B8%B1%E0%B8%87%E0%B8%82%E0%B8%B4%E0%B8%87/data=!4m10!3m9!1s0x311db01606b1bc67:0xcee2f2573bb1e94a!5m2!4m1!1i2!8m2!3d14.2255749!4d101.1840013!16s%2Fg%2F1jkwg7s3m!19sChIJZ7yxBhawHTERSumxO1fy4s4?authuser=0&hl=th&rclk=1,http://www.facebook.com/GingerBreadHouse.Nakonnayok,092 268 8272,บ้านขนมปังขิง 76/16 ต.พรหมณี อ.เมือง นครนายก 26000,,,"{'1': 6, '2': 11, '3': 36, '4': 120, '5': 202}",14.2255749,101.1840013
AC128,บ้านคุ้มเงิน,โรงแรม,4.6,50,https://www.google.com/maps/place/%E0%B8%9A%E0%B9%89%E0%B8%B2%E0%B8%99%E0%B8%84%E0%B8%B8%E0%B9%89%E0%B8%A1%E0%B9%80%E0%B8%87%E0%B8%B4%E0%B8%99/data=!4m10!3m9!1s0x311db15ecabe8a8f:0x72140ad9e0568180!5m2!4m1!1i2!8m2!3d14.2735813!4d101.1642236!16s%2Fg%2F11fhkjjhg3!19sChIJj4q-yl6xHTERgIFW4NkKFHI?authuser=0&hl=th&rclk=1,,085 441 0911,บ้านคุ้มเงิน ถนนสุวรรณศร ตำบล พรหมณี อ.เมือง นครนายก 26000,,,"{'1': 1, '2': 0, '3': 2, '4': 11, '5': 36}",14.2735813,101.1642236
AC129,บ้านชมภูรีสอร์ท,โรงแรม,4.1,221,https://www.google.com/maps/place/%E0%B8%9A%E0%B9%89%E0%B8%B2%E0%B8%99%E0%B8%8A%E0%B8%A1%E0%B8%A0%E0%B8%B9%E0%B8%A3%E0%B8%B5%E0%B8%AA%E0%B8%AD%E0%B8%A3%E0%B9%8C%E0%B8%97/data=!4m10!3m9!1s0x311dafd0d780557d:0xc65363f83dbd34e9!5m2!4m1!1i2!8m2!3d14.200863!4d101.1983319!16s%2Fg%2F11bxkz49t0!19sChIJfVWA19CvHTER6TS9PfhjU8Y?authuser=0&hl=th&rclk=1,https://www.bannchompuresort.com/,084 599 6142,102 บ้านชมภูรีสอร์ท 1 ตำบล ท่าช้าง อำเภอเมืองนครนายก นครนายก 26000,,ห้องพักบรรยากาศผ่อนคลายในโรงแรมแบบเรียบง่ายมีตู้เย็นขนาดเล็ก สวน สนามกีฬา และเลาจน์,"{'1': 2, '2': 12, '3': 40, '4': 82, '5': 85}",14.200863,101.1983319
AC130,บ้านตอไม้แดงรีสอร์ท,โรงแรม,3.9,9,https://www.google.com/maps/place/%E0%B8%9A%E0%B9%89%E0%B8%B2%E0%B8%99%E0%B8%95%E0%B8%AD%E0%B9%84%E0%B8%A1%E0%B9%89%E0%B9%81%E0%B8%94%E0%B8%87%E0%B8%A3%E0%B8%B5%E0%B8%AA%E0%B8%AD%E0%B8%A3%E0%B9%8C%E0%B8%97/data=!4m10!3m9!1s0x311db192f8d9239b:0x4c49c3024c31341e!5m2!4m1!1i2!8m2!3d14.2428527!4d101.1820377!16s%2Fg%2F11h3nwgrvx!19sChIJmyPZ-JKxHTERHjQxTALDSUw?authuser=0&hl=th&rclk=1,,092 906 0112,65VJ+4RV บ้านตอไม้แดงรีสอร์ท นย.2011 ตำบล พรหมณี อำเภอเมืองนครนายก นครนายก 26000,,,"{'1': 0, '2': 1, '3': 1, '4': 5, '5': 2}",14.2428527,101.1820377
AC131,บ้านตะเกียงสาริกา,รีสอร์ท,4.2,16,https://www.google.com/maps/place/%E0%B8%9A%E0%B9%89%E0%B8%B2%E0%B8%99%E0%B8%95%E0%B8%B0%E0%B9%80%E0%B8%81%E0%B8%B5%E0%B8%A2%E0%B8%87%E0%B8%AA%E0%B8%B2%E0%B8%A3%E0%B8%B4%E0%B8%81%E0%B8%B2/data=!4m10!3m9!1s0x311db33655d1299f:0x6269291a90050d94!5m2!4m1!1i2!8m2!3d14.2818754!4d101.24535!16s%2Fg%2F11pf1mvf_q!19sChIJnynRVTazHTERlA0FkBopaWI?authuser=0&hl=th&rclk=1,,084 289 9596,บ้านตะเกียงสาริกา 136 หมู่12 ตำบล สาริกา เมือง นครนายก 26000,,,"{'1': 2, '2': 0, '3': 2, '4': 1, '5': 11}",14.2818754,101.24535
AC132,บ้านทุ่งเทียมเกวียน,รีสอร์ท,4.7,23,https://www.google.com/maps/place/%E0%B8%9A%E0%B9%89%E0%B8%B2%E0%B8%99%E0%B8%97%E0%B8%B8%E0%B9%88%E0%B8%87%E0%B9%80%E0%B8%97%E0%B8%B5%E0%B8%A2%E0%B8%A1%E0%B9%80%E0%B8%81%E0%B8%A7%E0%B8%B5%E0%B8%A2%E0%B8%99/data=!4m10!3m9!1s0x311db1860f831d17:0xed0d7bf47d228bba!5m2!4m1!1i2!8m2!3d14.2572946!4d101.2425765!16s%2Fg%2F11pm57619d!19sChIJFx2DD4axHTERuosiffR7De0?authuser=0&hl=th&rclk=1,https://web.facebook.com/baantoongresort,085 839 1165,"บ้านทุ่งเทียมเกวียน, 137 Moo 10, ตำบล สาริกา Meung, นครนายก 26000",,,"{'1': 0, '2': 0, '3': 0, '4': 6, '5': 17}",14.2572946,101.2425765
AC133,บ้านทุ่งนาฟ้าสวยโฮมสเตย์ แคมป์ปิ้ง บ้านพักสระว่ายน้ำ ตกปลา วิวนากลางเขา,โฮมสเตย์,4.6,22,https://www.google.com/maps/place/%E0%B8%9A%E0%B9%89%E0%B8%B2%E0%B8%99%E0%B8%97%E0%B8%B8%E0%B9%88%E0%B8%87%E0%B8%99%E0%B8%B2%E0%B8%9F%E0%B9%89%E0%B8%B2%E0%B8%AA%E0%B8%A7%E0%B8%A2%E0%B9%82%E0%B8%AE%E0%B8%A1%E0%B8%AA%E0%B9%80%E0%B8%95%E0%B8%A2%E0%B9%8C+%E0%B9%81%E0%B8%84%E0%B8%A1%E0%B8%9B%E0%B9%8C%E0%B8%9B%E0%B8%B4%E0%B9%89%E0%B8%87+%E0%B8%9A%E0%B9%89%E0%B8%B2%E0%B8%99%E0%B8%9E%E0%B8%B1%E0%B8%81%E0%B8%AA%E0%B8%A3%E0%B8%B0%E0%B8%A7%E0%B9%88%E0%B8%B2%E0%B8%A2%E0%B8%99%E0%B9%89%E0%B8%B3+%E0%B8%95%E0%B8%81%E0%B8%9B%E0%B8%A5%E0%B8%B2+%E0%B8%A7%E0%B8%B4%E0%B8%A7%E0%B8%99%E0%B8%B2%E0%B8%81%E0%B8%A5%E0%B8%B2%E0%B8%87%E0%B9%80%E0%B8%82%E0%B8%B2/data=!4m10!3m9!1s0x311db1818e922b71:0x233504e7e863ef8!5m2!4m1!1i2!8m2!3d14.2898312!4d101.2140315!16s%2Fg%2F11h22r2fch!19sChIJcSuSjoGxHTER-D6Gfk5QMwI?authuser=0&hl=th&rclk=1,https://www.facebook.com/baantungnafasuay/,062 351 8707,บ้านทุ่งนาฟ้าสวยโฮมสเตย์ แคมป์ปิ้ง บ้านพักสระว่ายน้ำ ตกปลา วิวนากลางเขา 142 หมู่9 ตำบล เขาพระ อำเภอเมืองนครนายก นครนายก 26000,,,"{'1': 1, '2': 0, '3': 0, '4': 4, '5': 17}",14.2898312,101.2140315
AC134,บ้านนาย บ้านนอก Baannai Baannok Villa & Cafe Nakhonnayok,รีสอร์ท,4.3,6,https://www.google.com/maps/place/%E0%B8%9A%E0%B9%89%E0%B8%B2%E0%B8%99%E0%B8%99%E0%B8%B2%E0%B8%A2+%E0%B8%9A%E0%B9%89%E0%B8%B2%E0%B8%99%E0%B8%99%E0%B8%AD%E0%B8%81+Baannai+Baannok+Villa+%26+Cafe+Nakhonnayok/data=!4m10!3m9!1s0x311db7162dc4b217:0x7f33444b7ea5272f!5m2!4m1!1i2!8m2!3d14.3032938!4d101.2082975!16s%2Fg%2F11tbwzwpb7!19sChIJF7LELRa3HTERLyelfktEM38?authuser=0&hl=th&rclk=1,,089 616 9351,บ้านนาย บ้านนอก Baannai Baannok Villa & Cafe Nakhonnayok 193 หมู่ที่ 11 ซอย เขาลำดวน 6 ตำบล เขาพระ อำเภอเมืองนครนายก นครนายก 26000,,,"{'1': 1, '2': 0, '3': 0, '4': 0, '5': 5}",14.3032938,101.2082975
AC135,บ้านนารีสอร์ท นครนายกBanna Resort,โรงแรม,4.2,33,https://www.google.com/maps/place/%E0%B8%9A%E0%B9%89%E0%B8%B2%E0%B8%99%E0%B8%99%E0%B8%B2%E0%B8%A3%E0%B8%B5%E0%B8%AA%E0%B8%AD%E0%B8%A3%E0%B9%8C%E0%B8%97+%E0%B8%99%E0%B8%84%E0%B8%A3%E0%B8%99%E0%B8%B2%E0%B8%A2%E0%B8%81Banna+Resort/data=!4m10!3m9!1s0x311dbb06ab9c56e3:0xe64ef2f1a8868eef!5m2!4m1!1i2!8m2!3d14.2938552!4d101.074078!16s%2Fg%2F11rkf2t3zh!19sChIJ41acqwa7HTER746GqPHyTuY?authuser=0&hl=th&rclk=1,http://bannaresort.com/,095 929 2594,บ้านนารีสอร์ท นครนายกBanna Resort 138-139 หมู่13 ตำบล ป่าขะ อำเภอบ้านนา นครนายก 26110,,,"{'1': 1, '2': 2, '3': 5, '4': 7, '5': 18}",14.2938552,101.074078
AC136,บ้านนาโฮมสเตย์,โฮมสเตย์,4.2,19,https://www.google.com/maps/place/%E0%B8%9A%E0%B9%89%E0%B8%B2%E0%B8%99%E0%B8%99%E0%B8%B2%E0%B9%82%E0%B8%AE%E0%B8%A1%E0%B8%AA%E0%B9%80%E0%B8%95%E0%B8%A2%E0%B9%8C/data=!4m10!3m9!1s0x311dbc794c140035:0xf796c0d93e352fca!5m2!4m1!1i2!8m2!3d14.2661432!4d101.0666222!16s%2Fg%2F11bzsbbd8l!19sChIJNQAUTHm8HTERyi81PtnAlvc?authuser=0&hl=th&rclk=1,,094 919 7627,บ้านนาโฮมสเตย์ เทศบาล 1 ซอย 7 บ้านนา อำเภอบ้านนา นครนายก 26110,,,"{'1': 0, '2': 1, '3': 4, '4': 5, '5': 9}",14.2661432,101.0666222
AC137,บ้านป่าริมเขื่อน รีสอร์ท,ที่พักขนาดเล็ก,3.7,429,https://www.google.com/maps/place/%E0%B8%9A%E0%B9%89%E0%B8%B2%E0%B8%99%E0%B8%9B%E0%B9%88%E0%B8%B2%E0%B8%A3%E0%B8%B4%E0%B8%A1%E0%B9%80%E0%B8%82%E0%B8%B7%E0%B9%88%E0%B8%AD%E0%B8%99+%E0%B8%A3%E0%B8%B5%E0%B8%AA%E0%B8%AD%E0%B8%A3%E0%B9%8C%E0%B8%97/data=!4m10!3m9!1s0x311db3ac71c49fd7:0x7a9a48db5981b7b5!5m2!4m1!1i2!8m2!3d14.2916164!4d101.3202208!16s%2Fg%2F11d_8hd1zp!19sChIJ15_EcayzHTERtbeBWdtImno?authuser=0&hl=th&rclk=1,http://banparesort.com/,081 578 6475,บ้านป่าริมเขื่อน รีสอร์ท 43 4 ตำบล หินตั้ง อำเภอเมืองนครนายก นครนายก 26000,,ห้องพักและบังกะโลเรียบง่ายในรีสอร์ตชนบทสบายๆ มีร้านอาหาร คาเฟ่ และสระว่ายน้ำกลางแจ้ง 3 สระ,"{'1': 49, '2': 21, '3': 89, '4': 100, '5': 170}",14.2916164,101.3202208
AC138,บ้านพรการ์เด้นท์โฮม,โรงแรมพักระยะยาว,4.3,6,https://www.google.com/maps/place/%E0%B8%9A%E0%B9%89%E0%B8%B2%E0%B8%99%E0%B8%9E%E0%B8%A3%E0%B8%81%E0%B8%B2%E0%B8%A3%E0%B9%8C%E0%B9%80%E0%B8%94%E0%B9%89%E0%B8%99%E0%B8%97%E0%B9%8C%E0%B9%82%E0%B8%AE%E0%B8%A1/data=!4m10!3m9!1s0x311db18816743583:0xd8a1da418298ef68!5m2!4m1!1i2!8m2!3d14.2297084!4d101.1723903!16s%2Fg%2F11smkpfsmc!19sChIJgzV0FoixHTERaO-YgkHaodg?authuser=0&hl=th&rclk=1,,090 289 3291,บ้านพรการ์เด้นท์โฮม วิทยาลัยการอาชีพนครนายก 88 ติด ตำบล พรหมณี อำเภอเมืองนครนายก นครนายก 26000,,,"{'1': 1, '2': 0, '3': 0, '4': 0, '5': 5}",14.2297084,101.1723903
AC139,บ้านพรการ์เด้นโฮม,โรงแรม,,,https://www.google.com/maps/place/%E0%B8%9A%E0%B9%89%E0%B8%B2%E0%B8%99%E0%B8%9E%E0%B8%A3%E0%B8%81%E0%B8%B2%E0%B8%A3%E0%B9%8C%E0%B9%80%E0%B8%94%E0%B9%89%E0%B8%99%E0%B9%82%E0%B8%AE%E0%B8%A1/data=!4m10!3m9!1s0x311dba9e52155355:0x935d88336ee1d585!5m2!4m1!1i2!8m2!3d14.2359117!4d101.1595251!16s%2Fg%2F11tdfr2cht!19sChIJVVMVUp66HTERhdXhbjOIXZM?authuser=0&hl=th&rclk=1,,090 289 3291,88 บ้านพรการ์เด้นโฮม 31 ถ. สุวรรณศร ตำบล พรหมณี อำเภอเมืองนครนายก นครนายก 26000,,,"{'1': None, '2': None, '3': None, '4': None, '5': None}",14.2359117,101.1595251
AC140,บ้านพักนครนายกกาแล,เกสท์เฮ้าส์,3.6,43,https://www.google.com/maps/place/%E0%B8%9A%E0%B9%89%E0%B8%B2%E0%B8%99%E0%B8%9E%E0%B8%B1%E0%B8%81%E0%B8%99%E0%B8%84%E0%B8%A3%E0%B8%99%E0%B8%B2%E0%B8%A2%E0%B8%81%E0%B8%81%E0%B8%B2%E0%B9%81%E0%B8%A5/data=!4m10!3m9!1s0x311db4898be93d2d:0x5a9fa2db83898317!5m2!4m1!1i2!8m2!3d14.3116292!4d101.2998046!16s%2Fg%2F1hd_jrqxq!19sChIJLT3pi4m0HTERF4OJg9uin1o?authuser=0&hl=th&rclk=1,http://www.chillkornyok.com/,085 100 7977,876X+MW3 บ้านพักนครนายกกาแล ตำบล สาริกา อำเภอเมืองนครนายก นครนายก 26000,,,"{'1': 9, '2': 2, '3': 7, '4': 5, '5': 20}",14.3116292,101.2998046
AC141,บ้านเพ็ญรัตน์ Penrath Home,โรงแรม,4.9,24,https://www.google.com/maps/place/%E0%B8%9A%E0%B9%89%E0%B8%B2%E0%B8%99%E0%B9%80%E0%B8%9E%E0%B9%87%E0%B8%8D%E0%B8%A3%E0%B8%B1%E0%B8%95%E0%B8%99%E0%B9%8C+Penrath+Home/data=!4m10!3m9!1s0x311db1a1c7a56aa3:0x98e7ba64197a74c9!5m2!4m1!1i2!8m2!3d14.2166452!4d101.1756744!16s%2Fg%2F11h885x94b!19sChIJo2qlx6GxHTERyXR6GWS655g?authuser=0&hl=th&rclk=1,https://www.facebook.com/%E0%B8%9A%E0%B9%89%E0%B8%B2%E0%B8%99%E0%B9%80%E0%B8%9E%E0%B9%87%E0%B8%8D%E0%B8%A3%E0%B8%B1%E0%B8%95%E0%B8%99%E0%B9%8C-2395639750717847/?ref=bookmarks,037 349 247,"บ้านเพ็ญรัตน์ Penrath Home, 149/15 หมู่ 8 ต.พรหมณี อ.เมืองนครนายก, อำเภอเมืองนครนายก นครนายก 26000",,,"{'1': 0, '2': 0, '3': 0, '4': 3, '5': 21}",14.2166452,101.1756744
AC142,บ้านเพื่อน รีสอร์ท,ที่พักขนาดเล็ก,3.3,119,https://www.google.com/maps/place/%E0%B8%9A%E0%B9%89%E0%B8%B2%E0%B8%99%E0%B9%80%E0%B8%9E%E0%B8%B7%E0%B9%88%E0%B8%AD%E0%B8%99+%E0%B8%A3%E0%B8%B5%E0%B8%AA%E0%B8%AD%E0%B8%A3%E0%B9%8C%E0%B8%97/data=!4m10!3m9!1s0x311dae76fc43794b:0xf813c4647603f4b2!5m2!4m1!1i2!8m2!3d14.1735252!4d101.2492727!16s%2Fg%2F11bccjv2jn!19sChIJS3lD_HauHTERsvQDdmTEE_g?authuser=0&hl=th&rclk=1,,037 398 773,"บ้านเพื่อน รีสอร์ท Thailand, ถ. สุวรรณศร ตำบล เกาะโพธิ์ อำเภอปากพลี นครนายก 26130",,,"{'1': 22, '2': 13, '3': 23, '4': 33, '5': 28}",14.1735252,101.2492727
AC143,บ้านแพรชีวา - BAAN PEAR CHEVA,โฮสเทล,4.8,4,https://www.google.com/maps/place/%E0%B8%9A%E0%B9%89%E0%B8%B2%E0%B8%99%E0%B9%81%E0%B8%9E%E0%B8%A3%E0%B8%8A%E0%B8%B5%E0%B8%A7%E0%B8%B2+-+BAAN+PEAR+CHEVA/data=!4m10!3m9!1s0x311db5c02760203b:0x5a54f6bd37622d8c!5m2!4m1!1i2!8m2!3d14.3186435!4d101.2870611!16s%2Fg%2F11j0v0d_ny!19sChIJOyBgJ8C1HTERjC1iN732VFo?authuser=0&hl=th&rclk=1,https://www.facebook.com/baanpearcheva,063 429 6516,"บ้านแพรชีวา - BAAN PEAR CHEVA, ตำบล สาริกา อำเภอเมืองนครนายก นครนายก 26000",,,"{'1': 0, '2': 0, '3': 0, '4': 1, '5': 3}",14.3186435,101.2870611
AC144,บ้านภูรินทร์,บ้านพักสกี,4.3,8,https://www.google.com/maps/place/%E0%B8%9A%E0%B9%89%E0%B8%B2%E0%B8%99%E0%B8%A0%E0%B8%B9%E0%B8%A3%E0%B8%B4%E0%B8%99%E0%B8%97%E0%B8%A3%E0%B9%8C/data=!4m10!3m9!1s0x311db1a72194484f:0x98f81db249bb7a5c!5m2!4m1!1i2!8m2!3d14.2271969!4d101.1912183!16s%2Fg%2F11h_6sg32j!19sChIJT0iUIaexHTERXHq7SbId-Jg?authuser=0&hl=th&rclk=1,,095 763 9300,180 บ้านภูรินทร์ ตำบล พรหมณี อำเภอเมืองนครนายก นครนายก 26000,,,"{'1': 0, '2': 1, '3': 1, '4': 1, '5': 5}",14.2271969,101.1912183
AC145,บ้านภูสวน รีสอร์ท,รีสอร์ท,4.4,41,https://www.google.com/maps/place/%E0%B8%9A%E0%B9%89%E0%B8%B2%E0%B8%99%E0%B8%A0%E0%B8%B9%E0%B8%AA%E0%B8%A7%E0%B8%99+%E0%B8%A3%E0%B8%B5%E0%B8%AA%E0%B8%AD%E0%B8%A3%E0%B9%8C%E0%B8%97/data=!4m10!3m9!1s0x311db3babf5a847b:0x59ef7034918c1c50!5m2!4m1!1i2!8m2!3d14.2625849!4d101.2852831!16s%2Fg%2F11clg5qq43!19sChIJe4Rav7qzHTERUByMkTRw71k?authuser=0&hl=th&rclk=1,,084 669 4477,777P+24M บ้านภูสวน รีสอร์ท ตำบล หินตั้ง อำเภอเมืองนครนายก นครนายก 26000,,,"{'1': 2, '2': 0, '3': 3, '4': 11, '5': 25}",14.2625849,101.2852831
AC146,บ้านแม่รีสอร์ท,รีสอร์ท,4.6,42,https://www.google.com/maps/place/%E0%B8%9A%E0%B9%89%E0%B8%B2%E0%B8%99%E0%B9%81%E0%B8%A1%E0%B9%88%E0%B8%A3%E0%B8%B5%E0%B8%AA%E0%B8%AD%E0%B8%A3%E0%B9%8C%E0%B8%97/data=!4m10!3m9!1s0x311dae3fd5311645:0x46690d4d709448db!5m2!4m1!1i2!8m2!3d14.186442!4d101.229617!16s%2Fg%2F11f_7r55_l!19sChIJRRYx1T-uHTER20iUcE0NaUY?authuser=0&hl=th&rclk=1,https://resort-hotel-688.business.site/,064 916 4928,"บ้านแม่รีสอร์ท, 180 หมู่ 1 ถนนสุวรรณศร, วังกระโจม, เมือง, นครนายก 26000",,,"{'1': 0, '2': 0, '3': 2, '4': 12, '5': 28}",14.186442,101.229617
AC147,บ้านไม้ปลายเขื่อน รีสอร์ท at อำเภอเมืองนครนายก,รีสอร์ท,3.8,63,https://www.google.com/maps/place/%E0%B8%9A%E0%B9%89%E0%B8%B2%E0%B8%99%E0%B9%84%E0%B8%A1%E0%B9%89%E0%B8%9B%E0%B8%A5%E0%B8%B2%E0%B8%A2%E0%B9%80%E0%B8%82%E0%B8%B7%E0%B9%88%E0%B8%AD%E0%B8%99+%E0%B8%A3%E0%B8%B5%E0%B8%AA%E0%B8%AD%E0%B8%A3%E0%B9%8C%E0%B8%97+at+%E0%B8%AD%E0%B8%B3%E0%B9%80%E0%B8%A0%E0%B8%AD%E0%B9%80%E0%B8%A1%E0%B8%B7%E0%B8%AD%E0%B8%87%E0%B8%99%E0%B8%84%E0%B8%A3%E0%B8%99%E0%B8%B2%E0%B8%A2%E0%B8%81/data=!4m10!3m9!1s0x311db4927294794d:0x1f93eddaf5afe74e!5m2!4m1!1i2!8m2!3d14.3131538!4d101.3094642!16s%2Fg%2F11c53296jv!19sChIJTXmUcpK0HTERTuev9drtkx8?authuser=0&hl=th&rclk=1,,061 919 1297,บ้านไม้ปลายเขื่อน รีสอร์ท at อำเภอเมืองนครนายก ตำบล หินตั้ง อำเภอเมืองนครนายก นครนายก 26000,,บ้านไม้สไตล์ชนบทในรีสอร์ตบรรยากาศสบายๆ มีสระว่ายน้ำกลางแจ้งและพื้นที่จัดกิจกรรม,"{'1': 7, '2': 1, '3': 17, '4': 12, '5': 26}",14.3131538,101.3094642
AC148,บ้านรับรองริมน้ำ น้ำตกวังตะไคร้,ที่พัก,4.2,287,https://www.google.com/maps/place/%E0%B8%9A%E0%B9%89%E0%B8%B2%E0%B8%99%E0%B8%A3%E0%B8%B1%E0%B8%9A%E0%B8%A3%E0%B8%AD%E0%B8%87%E0%B8%A3%E0%B8%B4%E0%B8%A1%E0%B8%99%E0%B9%89%E0%B8%B3+%E0%B8%99%E0%B9%89%E0%B8%B3%E0%B8%95%E0%B8%81%E0%B8%A7%E0%B8%B1%E0%B8%87%E0%B8%95%E0%B8%B0%E0%B9%84%E0%B8%84%E0%B8%A3%E0%B9%89/data=!4m7!3m6!1s0x311db4fa7a93e25d:0x7c028704e480f453!8m2!3d14.3295506!4d101.3055962!16s%2Fg%2F11bwh9wdh7!19sChIJXeKTevq0HTERU_SA5ASHAnw?authuser=0&hl=th&rclk=1,http://www.wangtakrai.com/accom/03/3.html,037 385 164,88H4+R6H บ้านรับรองริมน้ำ น้ำตกวังตะไคร้ ตำบล หินตั้ง อำเภอเมืองนครนายก นครนายก 26000,,,"{'1': 10, '2': 9, '3': 53, '4': 67, '5': 148}",14.3295506,101.3055962
AC149,บ้านเรือนขวัญรีสอร์ท (Baan Ruenkwan Resort),รีสอร์ท,3.3,78,https://www.google.com/maps/place/%E0%B8%9A%E0%B9%89%E0%B8%B2%E0%B8%99%E0%B9%80%E0%B8%A3%E0%B8%B7%E0%B8%AD%E0%B8%99%E0%B8%82%E0%B8%A7%E0%B8%B1%E0%B8%8D%E0%B8%A3%E0%B8%B5%E0%B8%AA%E0%B8%AD%E0%B8%A3%E0%B9%8C%E0%B8%97+%28Baan+Ruenkwan+Resort%29/data=!4m10!3m9!1s0x311db3bf7108c3bd:0xf712b39ed0f20fd7!5m2!4m1!1i2!8m2!3d14.3138805!4d101.298321!16s%2Fg%2F11b6ytd4sd!19sChIJvcMIcb-zHTER1w_y0J6zEvc?authuser=0&hl=th&rclk=1,,086 831 2244,"บ้านเรือนขวัญรีสอร์ท (Baan Ruenkwan Resort) 634 หมู่ 1 ปาก ซ สา ริกา 42 ต สา ริกา อ เมือง จ นครนายก 26000, ตำบล สาริกา อำเภอเมืองนครนายก นครนายก 26000",,,"{'1': 10, '2': 11, '3': 23, '4': 11, '5': 23}",14.3138805,101.298321
AC150,บ้านสวน ณัฐติกา รีสอร์ท,รีสอร์ท,4.2,12,https://www.google.com/maps/place/%E0%B8%9A%E0%B9%89%E0%B8%B2%E0%B8%99%E0%B8%AA%E0%B8%A7%E0%B8%99+%E0%B8%93%E0%B8%B1%E0%B8%90%E0%B8%95%E0%B8%B4%E0%B8%81%E0%B8%B2+%E0%B8%A3%E0%B8%B5%E0%B8%AA%E0%B8%AD%E0%B8%A3%E0%B9%8C%E0%B8%97/data=!4m10!3m9!1s0x311db570179a4ae3:0xaf8c89a6ec059731!5m2!4m1!1i2!8m2!3d14.3128032!4d101.2987107!16s%2Fg%2F11sfh_zs5m!19sChIJ40qaF3C1HTERMZcF7KaJjK8?authuser=0&hl=th&rclk=1,,081 457 4688,บ้านสวน ณัฐติกา รีสอร์ท 148 3 ตำบล สาริกา เมือง นครนายก 26000,,,"{'1': 0, '2': 1, '3': 3, '4': 1, '5': 7}",14.3128032,101.2987107
AC151,บ้านสวนครูกบ,โรงแรม,4.2,95,https://www.google.com/maps/place/%E0%B8%9A%E0%B9%89%E0%B8%B2%E0%B8%99%E0%B8%AA%E0%B8%A7%E0%B8%99%E0%B8%84%E0%B8%A3%E0%B8%B9%E0%B8%81%E0%B8%9A/data=!4m10!3m9!1s0x311c4d6d645d8993:0xe8dff687f32d69!5m2!4m1!1i2!8m2!3d14.2205366!4d101.3767055!16s%2Fg%2F11cs5x25hq!19sChIJk4ldZG1NHDERaS3zh_bf6AA?authuser=0&hl=th&rclk=1,https://www.facebook.com/bansuan.krukob,081 808 1556,"บ้านสวนครูกบ Unnamed Road 26130, ตำบล นาหินลาด อำเภอปากพลี นครนายก 26130",,,"{'1': 5, '2': 1, '3': 13, '4': 30, '5': 46}",14.2205366,101.3767055
AC152,บ้านสวนคุณย่ารีสอร์ท,โรงแรม,3.8,6,https://www.google.com/maps/place/%E0%B8%9A%E0%B9%89%E0%B8%B2%E0%B8%99%E0%B8%AA%E0%B8%A7%E0%B8%99%E0%B8%84%E0%B8%B8%E0%B8%93%E0%B8%A2%E0%B9%88%E0%B8%B2%E0%B8%A3%E0%B8%B5%E0%B8%AA%E0%B8%AD%E0%B8%A3%E0%B9%8C%E0%B8%97/data=!4m10!3m9!1s0x311dba925e246553:0xe1e86733adf31b66!5m2!4m1!1i2!8m2!3d14.2435876!4d101.1422533!16s%2Fg%2F11c2khxgbc!19sChIJU2UkXpK6HTERZhvzrTNn6OE?authuser=0&hl=th&rclk=1,,,64VR+CWJ บ้านสวนคุณย่ารีสอร์ท ตำบล แม่น้ำคู้ อำเภอ ปลวกแดง ระยอง 26000,,,"{'1': 0, '2': 1, '3': 1, '4': 2, '5': 2}",14.2435876,101.1422533
AC153,บ้านสวนชัยมงคล รีสอร์ท นครนายก,รีสอร์ท,4.7,23,https://www.google.com/maps/place/%E0%B8%9A%E0%B9%89%E0%B8%B2%E0%B8%99%E0%B8%AA%E0%B8%A7%E0%B8%99%E0%B8%8A%E0%B8%B1%E0%B8%A2%E0%B8%A1%E0%B8%87%E0%B8%84%E0%B8%A5+%E0%B8%A3%E0%B8%B5%E0%B8%AA%E0%B8%AD%E0%B8%A3%E0%B9%8C%E0%B8%97+%E0%B8%99%E0%B8%84%E0%B8%A3%E0%B8%99%E0%B8%B2%E0%B8%A2%E0%B8%81/data=!4m10!3m9!1s0x311db1bd7351a863:0x82cf8d74f42ecd42!5m2!4m1!1i2!8m2!3d14.2177751!4d101.2234873!16s%2Fg%2F11t9wlsr14!19sChIJY6hRc72xHTERQs0u9HSNz4I?authuser=0&hl=th&rclk=1,https://www.facebook.com/profile.php?id=100063625325683,061 392 3978,บ้านสวนชัยมงคล รีสอร์ท นครนายก 224 หมู่ 6 ซอย บ้านใหญ่ ตำบล บ้านใหญ่ เมือง นครนายก 26000,,,"{'1': 0, '2': 0, '3': 1, '4': 4, '5': 18}",14.2177751,101.2234873
AC154,บ้านสวนทิพย์ รีสอร์ท นครนายก,รีสอร์ท,4.1,110,https://www.google.com/maps/place/%E0%B8%9A%E0%B9%89%E0%B8%B2%E0%B8%99%E0%B8%AA%E0%B8%A7%E0%B8%99%E0%B8%97%E0%B8%B4%E0%B8%9E%E0%B8%A2%E0%B9%8C+%E0%B8%A3%E0%B8%B5%E0%B8%AA%E0%B8%AD%E0%B8%A3%E0%B9%8C%E0%B8%97+%E0%B8%99%E0%B8%84%E0%B8%A3%E0%B8%99%E0%B8%B2%E0%B8%A2%E0%B8%81/data=!4m10!3m9!1s0x311db00fe7d8496d:0xd86ab89c49ae8f46!5m2!4m1!1i2!8m2!3d14.2214126!4d101.1732363!16s%2Fg%2F11c1q2ggy_!19sChIJbUnY5w-wHTERRo-uSZy4atg?authuser=0&hl=th&rclk=1,,089 606 4555,บ้านสวนทิพย์ รีสอร์ท นครนายก 100 ม.8 พรหมณี อำเภอเมืองนครนายก นครนายก 26000,,,"{'1': 1, '2': 6, '3': 18, '4': 39, '5': 46}",14.2214126,101.1732363
AC155,บ้านสวนน้ำพุ,รีสอร์ท,3.4,8,https://www.google.com/maps/place/%E0%B8%9A%E0%B9%89%E0%B8%B2%E0%B8%99%E0%B8%AA%E0%B8%A7%E0%B8%99%E0%B8%99%E0%B9%89%E0%B8%B3%E0%B8%9E%E0%B8%B8/data=!4m10!3m9!1s0x311db1dd9342d287:0xf834f06928acb794!5m2!4m1!1i2!8m2!3d14.2214577!4d101.2013345!16s%2Fg%2F1pzwkj099!19sChIJh9JCk92xHTERlLesKGnwNPg?authuser=0&hl=th&rclk=1,,092 727 6565,"บ้านสวนน้ำพุ 99/9 หมู่ที่ 7, ถนนเลี่ยงเมืองนครนายก, ตำบลบ้านใหญ่ อำเภอเมืองนครนายก จังหวัดนครนายก, 26000",,,"{'1': 2, '2': 0, '3': 2, '4': 1, '5': 3}",14.2214577,101.2013345
AC156,บ้านสวนเนินบก,รีสอร์ท,4.3,14,https://www.google.com/maps/place/%E0%B8%9A%E0%B9%89%E0%B8%B2%E0%B8%99%E0%B8%AA%E0%B8%A7%E0%B8%99%E0%B9%80%E0%B8%99%E0%B8%B4%E0%B8%99%E0%B8%9A%E0%B8%81/data=!4m10!3m9!1s0x311c4d54cc633335:0x3a058761785b2f1b!5m2!4m1!1i2!8m2!3d14.2073812!4d101.3560753!16s%2Fg%2F1pzq0x8wr!19sChIJNTNjzFRNHDERGy9beGGHBTo?authuser=0&hl=th&rclk=1,http://www.teawtourthai.com/nakhonnayok/?code=4054,092 279 3119,บ้านสวนเนินบก 122 ตำบล นาหินลาด อำเภอปากพลี นครนายก 26130,,,"{'1': 0, '2': 0, '3': 4, '4': 2, '5': 8}",14.2073812,101.3560753
AC157,บ้านสวนริมคลอง โฮมสเตย์,รีสอร์ท,4.6,12,https://www.google.com/maps/place/%E0%B8%9A%E0%B9%89%E0%B8%B2%E0%B8%99%E0%B8%AA%E0%B8%A7%E0%B8%99%E0%B8%A3%E0%B8%B4%E0%B8%A1%E0%B8%84%E0%B8%A5%E0%B8%AD%E0%B8%87+%E0%B9%82%E0%B8%AE%E0%B8%A1%E0%B8%AA%E0%B9%80%E0%B8%95%E0%B8%A2%E0%B9%8C/data=!4m10!3m9!1s0x311db33c7b416f45:0xf6bd9120632d4f5a!5m2!4m1!1i2!8m2!3d14.2617149!4d101.2561112!16s%2Fg%2F11l9pp6f4d!19sChIJRW9BezyzHTERWk8tYyCRvfY?authuser=0&hl=th&rclk=1,,092 279 1566,บ้านสวนริมคลอง โฮมสเตย์ 32/1 หมู่ที่ 11 ตำบล สาริกา อำเภอเมืองนครนายก นครนายก 26000,,,"{'1': 0, '2': 0, '3': 1, '4': 3, '5': 8}",14.2617149,101.2561112
AC158,บ้านสวนริมธารรีสอร์ท นครนายก,โรงแรม,4.2,56,https://www.google.com/maps/place/%E0%B8%9A%E0%B9%89%E0%B8%B2%E0%B8%99%E0%B8%AA%E0%B8%A7%E0%B8%99%E0%B8%A3%E0%B8%B4%E0%B8%A1%E0%B8%98%E0%B8%B2%E0%B8%A3%E0%B8%A3%E0%B8%B5%E0%B8%AA%E0%B8%AD%E0%B8%A3%E0%B9%8C%E0%B8%97+%E0%B8%99%E0%B8%84%E0%B8%A3%E0%B8%99%E0%B8%B2%E0%B8%A2%E0%B8%81/data=!4m10!3m9!1s0x311db74a39ea49d7:0xdba47688f67463a9!5m2!4m1!1i2!8m2!3d14.3028281!4d101.2019859!16s%2Fg%2F11fk3c9_xt!19sChIJ10nqOUq3HTERqWN09oh2pNs?authuser=0&hl=th&rclk=1,https://www.facebook.com/profile.php?id=100063609774253&mibextid=LQQJ4d,081 848 5340,บ้านสวนริมธารรีสอร์ท นครนายก ตำบล เขาพระ อำเภอเมืองนครนายก นครนายก 26000,,,"{'1': 3, '2': 1, '3': 6, '4': 17, '5': 29}",14.3028281,101.2019859
AC159,บ้านสวนรีสอร์ท,รีสอร์ท,4.4,10,https://www.google.com/maps/place/%E0%B8%9A%E0%B9%89%E0%B8%B2%E0%B8%99%E0%B8%AA%E0%B8%A7%E0%B8%99%E0%B8%A3%E0%B8%B5%E0%B8%AA%E0%B8%AD%E0%B8%A3%E0%B9%8C%E0%B8%97/data=!4m10!3m9!1s0x311dbb0e9c03ee87:0x5a5018730ebc21f9!5m2!4m1!1i2!8m2!3d14.2809075!4d101.0723872!16s%2Fg%2F11rk9p9w8f!19sChIJh-4DnA67HTER-SG8DnMYUFo?authuser=0&hl=th&rclk=1,,080 785 9656,บ้านสวนรีสอร์ท 200 1 ตำบล ป่าขะ อำเภอบ้านนา นครนายก 26110,,,"{'1': 0, '2': 0, '3': 2, '4': 2, '5': 6}",14.2809075,101.0723872
AC160,บ้านสวนลานรักโฮมเสตย์,กระท่อม,5,7,https://www.google.com/maps/place/%E0%B8%9A%E0%B9%89%E0%B8%B2%E0%B8%99%E0%B8%AA%E0%B8%A7%E0%B8%99%E0%B8%A5%E0%B8%B2%E0%B8%99%E0%B8%A3%E0%B8%B1%E0%B8%81%E0%B9%82%E0%B8%AE%E0%B8%A1%E0%B9%80%E0%B8%AA%E0%B8%95%E0%B8%A2%E0%B9%8C/data=!4m10!3m9!1s0x311db773582ed4fd:0xb0bec211e1ef767d!5m2!4m1!1i2!8m2!3d14.3305522!4d101.1968499!16s%2Fg%2F11jqw23sb7!19sChIJ_dQuWHO3HTERfXbv4RHCvrA?authuser=0&hl=th&rclk=1,,,บ้านสวนลานรักโฮมเสตย์ ซอย โยธาธิการ ตำบล เขาพระ อำเภอเมืองนครนายก นครนายก 26000,,,"{'1': 0, '2': 0, '3': 0, '4': 0, '5': 7}",14.3305522,101.1968499
AC161,บ้านสวนลุงยศ,โรงแรม,4.3,115,https://www.google.com/maps/place/%E0%B8%9A%E0%B9%89%E0%B8%B2%E0%B8%99%E0%B8%AA%E0%B8%A7%E0%B8%99%E0%B8%A5%E0%B8%B8%E0%B8%87%E0%B8%A2%E0%B8%A8/data=!4m10!3m9!1s0x311db3a30d341fd3:0xb91341db81688d9c!5m2!4m1!1i2!8m2!3d14.2742167!4d101.2886896!16s%2Fg%2F1hdzf60f6!19sChIJ0x80DaOzHTERnI1ogdtBE7k?authuser=0&hl=th&rclk=1,,086 566 5022,"บ้านสวนลุงยศ 76 ม .9 ต หิน ตั้ง อ เมือง จ นครนายก 26000, ตำบล หินตั้ง อำเภอเมืองนครนายก นครนายก 26000",,รีสอร์ตสะดวกสบายท่ามกลางสวนอันร่มรื่นให้บริการบ้านพักสีสันสดใส บางหลังมีเฉลียงส่วนตัว,"{'1': 1, '2': 3, '3': 16, '4': 32, '5': 63}",14.2742167,101.2886896
AC162,บ้านสวนสมถวิลรีสอร์ท,รีสอร์ท,4.8,24,https://www.google.com/maps/place/%E0%B8%9A%E0%B9%89%E0%B8%B2%E0%B8%99%E0%B8%AA%E0%B8%A7%E0%B8%99%E0%B8%AA%E0%B8%A1%E0%B8%96%E0%B8%A7%E0%B8%B4%E0%B8%A5%E0%B8%A3%E0%B8%B5%E0%B8%AA%E0%B8%AD%E0%B8%A3%E0%B9%8C%E0%B8%97/data=!4m10!3m9!1s0x311db380e7bc445f:0xa05f8ae2fb281d2e!5m2!4m1!1i2!8m2!3d14.2927984!4d101.2935171!16s%2Fg%2F11b_3h6gdg!19sChIJX0S854CzHTERLh0o--KKX6A?authuser=0&hl=th&rclk=1,,089 772 5277,77VV+4C6 บ้านสวนสมถวิลรีสอร์ท ตำบล สาริกา อำเภอเมืองนครนายก นครนายก 26000,,,"{'1': 0, '2': 0, '3': 1, '4': 2, '5': 21}",14.2927984,101.2935171
AC163,บ้านสวนสวัสดิ์-ดี,โฮสเทล,4.5,25,https://www.google.com/maps/place/%E0%B8%9A%E0%B9%89%E0%B8%B2%E0%B8%99%E0%B8%AA%E0%B8%A7%E0%B8%99%E0%B8%AA%E0%B8%A7%E0%B8%B1%E0%B8%AA%E0%B8%94%E0%B8%B4%E0%B9%8C-%E0%B8%94%E0%B8%B5/data=!4m10!3m9!1s0x311db1d77ddd947f:0x518721d8c376f117!5m2!4m1!1i2!8m2!3d14.2625596!4d101.2429957!16s%2Fg%2F1hc89733n!19sChIJf5TdfdexHTERF_F2w9ghh1E?authuser=0&hl=th&rclk=1,,081 625 2131,บ้านสวนสวัสดิ์-ดี บ้านเลขที่10 หมู่12 ต.สาริกา อำเภอเมือง นครนายก,,,"{'1': 1, '2': 1, '3': 0, '4': 6, '5': 17}",14.2625596,101.2429957
AC164,บ้านสวนสายสมร,รีสอร์ท,4.4,95,https://www.google.com/maps/place/%E0%B8%9A%E0%B9%89%E0%B8%B2%E0%B8%99%E0%B8%AA%E0%B8%A7%E0%B8%99%E0%B8%AA%E0%B8%B2%E0%B8%A2%E0%B8%AA%E0%B8%A1%E0%B8%A3/data=!4m10!3m9!1s0x311db3a195c9af9f:0x2deec8414d5fbba9!5m2!4m1!1i2!8m2!3d14.2665088!4d101.2931524!16s%2Fg%2F1tf3lcn5!19sChIJn6_JlaGzHTERqbtfTUHI7i0?authuser=0&hl=th&rclk=1,https://saisamorn.com/,087 030 1824,"บ้านสวนสายสมร 11/2 ม.6 ต, ตำบล หินตั้ง อำเภอเมืองนครนายก นครนายก 26000",,,"{'1': 4, '2': 1, '3': 7, '4': 27, '5': 56}",14.2665088,101.2931524
AC165,บ้านสารพจน์ รีสอร์ท,รีสอร์ท,4.4,30,https://www.google.com/maps/place/%E0%B8%9A%E0%B9%89%E0%B8%B2%E0%B8%99%E0%B8%AA%E0%B8%B2%E0%B8%A3%E0%B8%9E%E0%B8%88%E0%B8%99%E0%B9%8C+%E0%B8%A3%E0%B8%B5%E0%B8%AA%E0%B8%AD%E0%B8%A3%E0%B9%8C%E0%B8%97/data=!4m10!3m9!1s0x311db1bf35bf2f21:0x287c6a4a3102a282!5m2!4m1!1i2!8m2!3d14.2312667!4d101.2243004!16s%2Fg%2F11f3zf02ly!19sChIJIS-_Nb-xHTERgqICMUpqfCg?authuser=0&hl=th&rclk=1,https://www.facebook.com/sarapojresort,081 638 6127,บ้านสารพจน์ รีสอร์ท 149 ซอย บ้านใหญ่ ตำบล บ้านใหญ่ เมือง นครนายก 26000,,,"{'1': 1, '2': 1, '3': 3, '4': 6, '5': 19}",14.2312667,101.2243004
AC166,บ้านสาริกา เมาเท่นวิว,รีสอร์ท,4.7,6,https://www.google.com/maps/place/%E0%B8%9A%E0%B9%89%E0%B8%B2%E0%B8%99%E0%B8%AA%E0%B8%B2%E0%B8%A3%E0%B8%B4%E0%B8%81%E0%B8%B2+%E0%B9%80%E0%B8%A1%E0%B8%B2%E0%B9%80%E0%B8%97%E0%B9%88%E0%B8%99%E0%B8%A7%E0%B8%B4%E0%B8%A7/data=!4m10!3m9!1s0x311db1555c96864b:0x31a0e20095c0b26b!5m2!4m1!1i2!8m2!3d14.272163!4d101.222008!16s%2Fg%2F11tc63khtx!19sChIJS4aWXFWxHTERa7LAlQDioDE?authuser=0&hl=th&rclk=1,http://www.facebook.com/BannSarika/,085 655 5665,167 บ้านสาริกา เมาเท่นวิว ตำบล เขาพระ เมือง นครนายก 26000,,,"{'1': 0, '2': 0, '3': 0, '4': 2, '5': 4}",14.272163,101.222008
AC167,บ้านสาริกา วอเตอร์ฟอลล์ วิว,รีสอร์ท,4.6,15,https://www.google.com/maps/place/%E0%B8%9A%E0%B9%89%E0%B8%B2%E0%B8%99%E0%B8%AA%E0%B8%B2%E0%B8%A3%E0%B8%B4%E0%B8%81%E0%B8%B2+%E0%B8%A7%E0%B8%AD%E0%B9%80%E0%B8%95%E0%B8%AD%E0%B8%A3%E0%B9%8C%E0%B8%9F%E0%B8%AD%E0%B8%A5%E0%B8%A5%E0%B9%8C+%E0%B8%A7%E0%B8%B4%E0%B8%A7/data=!4m10!3m9!1s0x311db3966fd53841:0x21784ea5e49ac0ca!5m2!4m1!1i2!8m2!3d14.2637879!4d101.2785762!16s%2Fg%2F11j399gjs7!19sChIJQTjVb5azHTERysCa5KVOeCE?authuser=0&hl=th&rclk=1,https://www.facebook.com/BannSarika/,085 655 5665,บ้านสาริกา วอเตอร์ฟอลล์ วิว 209 หมู่ 4 สาริกา เมือง นครนายก 26000,,,"{'1': 0, '2': 0, '3': 2, '4': 2, '5': 11}",14.2637879,101.2785762
AC168,บ้านอิงเขารีสอร์ท นครยายก,โรงแรม,5,4,https://www.google.com/maps/place/%E0%B8%9A%E0%B9%89%E0%B8%B2%E0%B8%99%E0%B8%AD%E0%B8%B4%E0%B8%87%E0%B9%80%E0%B8%82%E0%B8%B2%E0%B8%A3%E0%B8%B5%E0%B8%AA%E0%B8%AD%E0%B8%A3%E0%B9%8C%E0%B8%97+%E0%B8%99%E0%B8%84%E0%B8%A3%E0%B8%A2%E0%B8%B2%E0%B8%A2%E0%B8%81/data=!4m10!3m9!1s0x311db36dfdaaa92b:0x8f8fdb1b22ff0fe3!5m2!4m1!1i2!8m2!3d14.2416671!4d101.3179014!16s%2Fg%2F11g2wkt4wk!19sChIJK6mq_W2zHTER4w__Ihvbj48?authuser=0&hl=th&rclk=1,,095 760 3239,"บ้านอิงเขารีสอร์ท นครยายก, 58 หมู่ 8 บ้านบุ่งเข้, ตำบล หนองแสง อำเภอปากพลี นครนายก",,,"{'1': 0, '2': 0, '3': 0, '4': 0, '5': 4}",14.2416671,101.3179014
AC169,บ้านโฮมกับนิวฟาร์ม,โรงแรม,4.8,11,https://www.google.com/maps/place/%E0%B8%9A%E0%B9%89%E0%B8%B2%E0%B8%99%E0%B9%82%E0%B8%AE%E0%B8%A1%E0%B8%81%E0%B8%B1%E0%B8%9A%E0%B8%99%E0%B8%B4%E0%B8%A7%E0%B8%9F%E0%B8%B2%E0%B8%A3%E0%B9%8C%E0%B8%A1/data=!4m10!3m9!1s0x311db12b55d59c7f:0x5a6eed756535d260!5m2!4m1!1i2!8m2!3d14.2693819!4d101.1954105!16s%2Fg%2F11js1nbbg5!19sChIJf5zVVSuxHTERYNI1ZXXtblo?authuser=0&hl=th&rclk=1,https://www.facebook.com/Bann-Home-kub-new-organic-farm-108643160522471/,,"บ้านโฮมกับนิวฟาร์ม, ซอยเขาฝาละมี-คลองยาง ตำบล พรหมณี อำเภอเมืองนครนายก นครนายก 26000",,,"{'1': 0, '2': 0, '3': 0, '4': 2, '5': 9}",14.2693819,101.1954105
AC170,บีพีเมาน์เท่น พูลวิลล่านครนายก,รีสอร์ท,4.5,100,https://www.google.com/maps/place/%E0%B8%9A%E0%B8%B5%E0%B8%9E%E0%B8%B5%E0%B9%80%E0%B8%A1%E0%B8%B2%E0%B8%99%E0%B9%8C%E0%B9%80%E0%B8%97%E0%B9%88%E0%B8%99+%E0%B8%9E%E0%B8%B9%E0%B8%A5%E0%B8%A7%E0%B8%B4%E0%B8%A5%E0%B8%A5%E0%B9%88%E0%B8%B2%E0%B8%99%E0%B8%84%E0%B8%A3%E0%B8%99%E0%B8%B2%E0%B8%A2%E0%B8%81/data=!4m10!3m9!1s0x311dbbd97e30fe8b:0xa2b62b09a6512da6!5m2!4m1!1i2!8m2!3d14.3015095!4d101.1120748!16s%2Fg%2F11qnqdzmyd!19sChIJi_4wftm7HTERpi1RpgkrtqI?authuser=0&hl=th&rclk=1,,084 161 4649,493 บีพีเมาน์เท่น พูลวิลล่านครนายก 1 ตำบล ศรีกะอาง อำเภอบ้านนา นครนายก 26110,,,"{'1': 3, '2': 3, '3': 12, '4': 7, '5': 75}",14.3015095,101.1120748
AC171,แบล็คแจ็ค รีสอร์ท,โรงแรม,4.1,16,https://www.google.com/maps/place/%E0%B9%81%E0%B8%9A%E0%B8%A5%E0%B9%87%E0%B8%84%E0%B9%81%E0%B8%88%E0%B9%87%E0%B8%84+%E0%B8%A3%E0%B8%B5%E0%B8%AA%E0%B8%AD%E0%B8%A3%E0%B9%8C%E0%B8%97/data=!4m10!3m9!1s0x311dae1586f27aa5:0x7e83a1c18ec4af8c!5m2!4m1!1i2!8m2!3d14.1870137!4d101.2299624!16s%2Fg%2F11csq7h4fz!19sChIJpXryhhWuHTERjK_EjsGhg34?authuser=0&hl=th&rclk=1,,,56PH+RX4 แบล็คแจ็ค รีสอร์ท ตำบล วังกระโจม อำเภอเมืองนครนายก นครนายก 26000,,,"{'1': 1, '2': 0, '3': 4, '4': 3, '5': 8}",14.1870137,101.2299624
AC172,ปรีชารีสอร์ท&พูลวิลล่า,รีสอร์ท,4.4,99,https://www.google.com/maps/place/%E0%B8%9B%E0%B8%A3%E0%B8%B5%E0%B8%8A%E0%B8%B2%E0%B8%A3%E0%B8%B5%E0%B8%AA%E0%B8%AD%E0%B8%A3%E0%B9%8C%E0%B8%97%26%E0%B8%9E%E0%B8%B9%E0%B8%A5%E0%B8%A7%E0%B8%B4%E0%B8%A5%E0%B8%A5%E0%B9%88%E0%B8%B2/data=!4m10!3m9!1s0x311db3cd00b2554d:0x173c44c9f059c4a!5m2!4m1!1i2!8m2!3d14.2533672!4d101.2661894!16s%2Fg%2F11cppn4w0s!19sChIJTVWyAM2zHTERSpwFn0zEcwE?authuser=0&hl=th&rclk=1,https://www.facebook.com/105208987507511/posts/128448238516919/,089 635 2117,ปรีชารีสอร์ท&พูลวิลล่า ตำบล สาริกา อำเภอเมืองนครนายก นครนายก 26000,,,"{'1': 1, '2': 4, '3': 8, '4': 30, '5': 56}",14.2533672,101.2661894
AC173,ปลายฝันเฮาส์ โคกลำดวน,โรงแรม,3.6,5,https://www.google.com/maps/place/%E0%B8%9B%E0%B8%A5%E0%B8%B2%E0%B8%A2%E0%B8%9D%E0%B8%B1%E0%B8%99%E0%B9%80%E0%B8%AE%E0%B8%B2%E0%B8%AA%E0%B9%8C+%E0%B9%82%E0%B8%84%E0%B8%81%E0%B8%A5%E0%B8%B3%E0%B8%94%E0%B8%A7%E0%B8%99/data=!4m10!3m9!1s0x311dba6b477a7e7f:0xfb9b9f8681ec0e43!5m2!4m1!1i2!8m2!3d14.2784308!4d101.1434299!16s%2Fg%2F11f66tcjs3!19sChIJf356R2u6HTERQw7sgYafm_s?authuser=0&hl=th&rclk=1,https://www.facebook.com/PLAIFANHOUSE/,080 775 4969,74HV+99F ปลายฝันเฮาส์ โคกลำดวน ตำบล พรหมณี อำเภอเมืองนครนายก นครนายก 26110,,,"{'1': 0, '2': 1, '3': 1, '4': 2, '5': 1}",14.2784308,101.1434299
AC174,ปานี วิลล์ รีสอร์ท,โรงแรม,3.8,100,https://www.google.com/maps/place/%E0%B8%9B%E0%B8%B2%E0%B8%99%E0%B8%B5+%E0%B8%A7%E0%B8%B4%E0%B8%A5%E0%B8%A5%E0%B9%8C+%E0%B8%A3%E0%B8%B5%E0%B8%AA%E0%B8%AD%E0%B8%A3%E0%B9%8C%E0%B8%97/data=!4m10!3m9!1s0x311db49661c24b73:0x1d2fce73de52ec1a!5m2!4m1!1i2!8m2!3d14.3100129!4d101.3176887!16s%2Fg%2F11c5h3bmws!19sChIJc0vCYZa0HTERGuxS3nPOLx0?authuser=0&hl=th&rclk=1,https://www.facebook.com/%E0%B8%9B%E0%B8%B2-%E0%B8%99%E0%B8%B5-%E0%B8%A7%E0%B8%B4%E0%B8%A5%E0%B8%A5%E0%B9%8C-%E0%B8%A3%E0%B8%B5%E0%B8%AA%E0%B8%AD%E0%B8%A3%E0%B9%8C%E0%B8%97-1785700971695274/,092 347 3430,ปานี วิลล์ รีสอร์ท 80/1 ตำบล หินตั้ง อำเภอเมืองนครนายก นครนายก,,,"{'1': 7, '2': 11, '3': 19, '4': 21, '5': 42}",14.3100129,101.3176887
